index,name,latitude,longitude,region
127,POGGIO NATIVO,42.22,12.8,Lazio
241,VILLAPIANA,39.85,16.45,Calabria
352,FONDO,46.43,11.13,Trentino-Alto Adige/Südtirol
355,FONDI,41.35,13.42,Lazio
430,FALIESI,40.88,14.77,Campania
459,SAN SEVERINO (CENTOLA),40.09,15.35,Campania
496,SERRA SAN BRUNO,38.58,16.33,Calabria
594,CHIOMONTE RAILWAY STATION,45.12,6.99,Piemonte
607,RAIANO RAILWAY STATION,42.1,13.81,Abruzzo
618,MACCAGNO CON PINO E VEDDASCA,46.05,8.73,Lombardia
638,AEOLIAN ISLANDS,38.53,14.9,Sicilia
642,BOLLATE NORD RAILWAY STATION,45.55,9.11,Lombardia
724,FUMONE,41.73,13.28,Lazio
834,CONCARENA,46.01,10.28,Lombardia
894,MONTALCINO,43.05,11.48,Toscana
959,PRATIGLIONE,45.35,7.6,Piemonte
1035,ASTI RAILWAY STATION,44.9,8.21,Piemonte
1066,MILANO CERTOSA RAILWAY STATION,45.51,9.14,Lombardia
1104,CAPECE RAILWAY STATION,40.59,17.57,Puglia
1111,FERRERE,44.88,8.0,Piemonte
1147,MOMBAROCCIO,43.8,12.85,Marche
1152,UZZANO,43.88,10.72,Toscana
1198,SAN GIOVANNI IN CROCE,45.08,10.37,Lombardia
1200,"FALCONE, SICILY",38.12,15.08,Sicilia
1222,SERRUNGARINA,43.75,12.87,Marche
1526,COPERTINO,40.27,18.05,Puglia
1564,GALLINARO,41.67,13.8,Lazio
1582,VENTOTENE,40.8,13.43,Lazio
1584,FRAGAGNANO,40.43,17.47,Puglia
1612,TRECASALI,44.93,10.27,Emilia-Romagna
1647,"BORGIA, CALABRIA",38.83,16.5,Calabria
1666,BITETTO,41.03,16.75,Puglia
1682,POGGIO SAN LORENZO,42.25,12.85,Lazio
1709,BALVANO,40.65,15.52,Basilicata
1760,VOLONGO,45.22,10.3,Lombardia
1820,BARONE CANAVESE,45.33,7.87,Piemonte
1971,RUFFIA,44.7,7.6,Piemonte
2095,"DONATO, PIEDMONT",45.53,7.87,Piemonte
2097,TORREGROTTA,38.2,15.35,Sicilia
2133,BUCINE,43.48,11.62,Toscana
2151,MONTE MOLARO,40.4,15.03,Campania
2185,GALLICCHIO,40.28,16.13,Basilicata
2217,FOLIGNO AIRPORT,42.93,12.71,Umbria
2226,LAVIANO,40.78,15.3,Campania
2303,ROCCHETTA A VOLTURNO,41.62,14.08,Molise
2306,VECCHIANO,43.78,10.38,Toscana
2311,CINQUEFRONDI,38.42,16.1,Calabria
2328,"CECINA, TUSCANY",43.32,10.52,Toscana
2332,VOLTERRA,43.4,10.87,Toscana
2366,CARAFFA DEL BIANCO,38.1,16.08,Calabria
2434,BOTRUGNO,40.07,18.32,Puglia
2527,PENEGAL,46.44,11.22,Trentino-Alto Adige/Südtirol
2570,ROCCA CANAVESE,45.32,7.58,Piemonte
2575,GABY,45.7,7.88,Valle d'Aosta / Vallée d'Aoste
2599,CELLA MONTE,45.08,8.38,Piemonte
2616,FRAGNETO L'ABATE,41.27,14.78,Campania
2656,"PULA, SARDINIA",39.02,9.0,Sardigna/Sardegna
2666,CREVACUORE,45.7,8.25,Piemonte
2851,CORBARA,40.72,14.6,Campania
2859,FELDTHURNS,46.67,11.6,Trentino-Alto Adige/Südtirol
2868,AVOLA,36.92,15.13,Sicilia
2870,CESA,40.97,14.23,Campania
2879,MONTONE,43.36,12.33,Umbria
2913,LENNO,45.97,9.2,Lombardia
2944,PONCIONE D'ARZO,45.89,8.93,Lombardia
2961,MONOPOLI,40.95,17.3,Puglia
3080,"IRMA, LOMBARDY",45.77,10.28,Lombardia
3085,OSTIANO,45.22,10.25,Lombardia
3111,LONIGO RAILWAY STATION,45.41,11.35,Veneto
3112,VAL REZZO,46.07,9.12,Lombardia
3182,DOMICELLA,40.88,14.59,Campania
3195,BAGALADI,38.03,15.82,Calabria
3202,CEVO,46.08,10.37,Lombardia
3255,CEVA,44.38,8.03,Piemonte
3312,MONTE GALERO,44.16,8.02,Liguria
3337,NURAGHE LOSA,40.12,8.79,Sardigna/Sardegna
3351,SIRTORI,45.73,9.33,Lombardia
3355,RAVISCANINA,41.37,14.25,Campania
3372,ELBA,42.76,10.24,Toscana
3443,OGGEBBIO,45.98,8.65,Piemonte
3491,SCHIGNANO,45.93,9.1,Lombardia
3629,CONCA CASALE,41.5,14.07,Molise
3634,MONCALIERI,45.0,7.68,Piemonte
3638,GRAVELLONA TOCE,45.93,8.43,Piemonte
3807,SAN COSTANTINO ALBANESE,40.03,16.3,Basilicata
3833,CERVARA DI ROMA,41.98,13.07,Lazio
3864,ALTA VALLE INTELVI,45.98,9.03,Lombardia
3921,SUESSULA,40.99,14.4,Campania
3984,ZENSON DI PIAVE,45.68,12.5,Veneto
4045,MOTTA MONTECORVINO,41.5,15.12,Puglia
4224,SAURIS,46.47,12.72,Friuli-Venezia Giulia
4324,CORATO RAILWAY STATION,41.16,16.42,Puglia
4326,SANTO STINO DI LIVENZA RAILWAY STATION,45.72,12.68,Veneto
4471,PALAGIANO,40.58,17.05,Puglia
4498,SOLETO,40.18,18.2,Puglia
4597,RIVE D'ARCANO,46.13,13.03,Friuli-Venezia Giulia
4626,SCYLLETIUM,38.81,16.6,Calabria
4681,ELLO,45.78,9.37,Lombardia
4754,PORTOFERRAIO,42.82,10.32,Toscana
4765,STRIANO,40.82,14.57,Campania
4768,PIZZO DI MADÉI,46.23,8.47,Piemonte
4809,PARMA RAILWAY STATION,44.81,10.33,Emilia-Romagna
4814,SABAUDIA,41.3,13.02,Lazio
4881,KRONPLATZ,46.74,11.96,Trentino-Alto Adige/Südtirol
4905,NOASCA,45.45,7.32,Piemonte
4927,COLBORDOLO,43.82,12.72,Marche
4967,PIZ DAL TEO,46.37,10.13,Lombardia
5030,"PONZA, LAZIO",40.9,12.97,Lazio
5077,QUARTO D'ALTINO,45.58,12.37,Veneto
5151,RIVA LIGURE,43.83,7.88,Liguria
5214,SIRACUSA RAILWAY STATION,37.07,15.28,Sicilia
5222,FAUGLIA,43.57,10.52,Toscana
5253,TÊTE DE VALPELLINE,45.98,7.58,Valle d'Aosta / Vallée d'Aoste
5300,GRAZZANO BADOGLIO,45.03,8.32,Piemonte
5349,MASSAFRA RAILWAY STATION,40.58,17.11,Puglia
5355,LUCOLI,42.29,13.34,Abruzzo
5368,"NE, LIGURIA",44.35,9.4,Liguria
5401,CANTIANO,43.47,12.63,Marche
5405,OTRANTO RAILWAY STATION,40.15,18.48,Puglia
5425,MONTE CALVO (PICENTINI),40.41,15.06,Campania
5431,MONTECASSIANO,43.37,13.43,Marche
5448,SASSO MARCONI,44.4,11.25,Emilia-Romagna
5521,GRAND HOTEL QUISISANA,40.55,14.24,Campania
5617,MONTE VELINO,42.15,13.37,Abruzzo
5667,PEDEROBBA,45.87,11.95,Veneto
5695,OCCHIOBELLO,44.92,11.58,Veneto
5718,SAN VITO ROMANO,41.88,12.98,Lazio
5782,COLLALTO SABINO,42.13,13.05,Lazio
5818,"RICCIA, MOLISE",41.48,14.83,Molise
5828,CAMUGNANO,44.17,11.1,Emilia-Romagna
5853,CASTIGLIONE CHIAVARESE,44.28,9.52,Liguria
5897,STARHOTELS ANDERSON,45.48,9.21,Lombardia
5981,RIOLO TERME,44.28,11.73,Emilia-Romagna
5988,COLTURANO,45.38,9.33,Lombardia
6028,MACERATA CAMPANIA,41.07,14.27,Campania
6099,FONTE,45.78,11.87,Veneto
6110,FOIANO DELLA CHIANA,43.25,11.82,Toscana
6182,CASAPESENNA,41.0,14.13,Campania
6225,LEMIE,45.23,7.3,Piemonte
6246,CHIUSI DELLA VERNA,43.7,11.93,Toscana
6285,CASTELLETTO STURA,44.45,7.63,Piemonte
6289,VERDELLO,45.6,9.63,Lombardia
6296,BOVILLE ERNICA,41.65,13.47,Lazio
6340,TARZO,45.97,12.23,Veneto
6389,VILLA SAN SECONDO,45.0,8.13,Piemonte
6393,FONTANELLATO,44.88,10.18,Emilia-Romagna
6451,LUNGAVILLA,45.03,9.08,Lombardia
6464,CORDOVADO,45.85,12.88,Friuli-Venezia Giulia
6487,GOMBITO,45.27,9.73,Lombardia
6499,"VESCOVATO, LOMBARDY",45.17,10.17,Lombardia
6523,FONNI,40.12,9.25,Sardigna/Sardegna
6529,VILLAPUTZU,39.43,9.58,Sardigna/Sardegna
6535,VERVÒ,46.3,11.12,Trentino-Alto Adige/Südtirol
6553,VILLANOVA DEL GHEBBO,45.07,11.65,Veneto
6560,"MELLO, LOMBARDY",46.15,9.55,Lombardia
6608,SANTA TERESA DI RIVA,37.93,15.35,Sicilia
6642,COMELICO SUPERIORE,46.58,12.52,Veneto
6732,MONTE RAMACETO,44.42,9.37,Liguria
6775,"RIFFIAN, SOUTH TYROL",46.7,11.18,Trentino-Alto Adige/Südtirol
6780,"RUDA, FRIULI",45.83,13.4,Friuli-Venezia Giulia
6792,CALCERANICA AL LAGO,46.07,11.23,Trentino-Alto Adige/Südtirol
6850,UMBERTIDE,43.3,12.33,Umbria
6853,"KLAUSEN, SOUTH TYROL",46.63,11.57,Trentino-Alto Adige/Südtirol
7129,TUCKETTSPITZE,46.5,10.49,Trentino-Alto Adige/Südtirol
7207,BICCARI,41.4,15.2,Puglia
7292,GIAVERA DEL MONTELLO,45.8,12.17,Veneto
7339,"BOCA, NOVARA",45.68,8.42,Piemonte
7488,CAMPAGNATICO,42.88,11.27,Toscana
7566,MORFASSO,44.72,9.7,Emilia-Romagna
7654,CERVESINA,45.05,9.02,Lombardia
7659,MONTÙ BECCARIA,45.03,9.32,Lombardia
7840,PIZZO CAMINO,45.98,10.18,Lombardia
7849,"SAN TEODORO, SARDINIA",40.77,9.67,Sardigna/Sardegna
7928,PORTO SAN GIORGIO,43.18,13.8,Marche
8107,RIVARONE,44.98,8.72,Piemonte
8207,AICURZIO,45.63,9.42,Lombardia
8277,"TRES, TRENTINO",46.32,11.1,Trentino-Alto Adige/Südtirol
8356,CARPIGNANO SESIA RAILWAY STATION,45.53,8.42,Piemonte
8359,CASOLE D'ELSA,43.33,11.05,Toscana
8361,NEROLA,42.17,12.78,Lazio
8387,ZIGNAGO,44.28,9.75,Liguria
8395,SAN GREGORIO DA SASSOLA,41.92,12.87,Lazio
8421,RONCOFERRARO,45.08,10.88,Lombardia
8439,PIANCOGNO,45.92,10.23,Lombardia
8484,BLESSAGNO,45.97,9.1,Lombardia
8631,SPADOLA,38.6,16.33,Calabria
8788,ROSELLO,41.9,14.35,Abruzzo
8885,STRAMBINELLO,45.42,7.77,Piemonte
8933,SAN LAZZARO DI SAVENA,44.47,11.41,Emilia-Romagna
9005,VIGNATE RAILWAY STATION,45.49,9.38,Lombardia
9019,MONTE SIBILLA,42.9,13.26,Marche
9026,ROYAL PALACE OF NAPLES,40.84,14.25,Campania
9060,PONTE SAN NICOLÒ,45.37,11.93,Veneto
9144,TIRANO RAILWAY STATION (RFI),46.22,10.17,Lombardia
9172,RIVIERA AIRPORT,44.05,8.13,Liguria
9249,CERRO VERONESE,45.57,11.03,Veneto
9266,MONTE SUBASIO,43.06,12.66,Umbria
9313,CASSOLA,45.73,11.78,Veneto
9339,CINISELLO BALSAMO,45.55,9.22,Lombardia
9362,PAVONE DEL MELLA,45.3,10.2,Lombardia
9410,"ORSENIGO, LOMBARDY",45.78,9.18,Lombardia
9497,SEGRATE RAILWAY STATION,45.48,9.3,Lombardia
9561,ARNARA,41.58,13.38,Lazio
9568,MANFREDONIA,41.63,15.92,Puglia
9677,ROCCA PIA,41.93,13.98,Abruzzo
9689,NOCERA UMBRA,43.12,12.78,Umbria
9709,CASORATE PRIMO,45.32,9.02,Lombardia
9710,TEORA,40.85,15.25,Campania
9737,MONFORTE SAN GIORGIO,38.17,15.37,Sicilia
9856,ACCIAROLI,40.18,15.03,Campania
9887,RACALE,39.97,18.1,Puglia
9970,TEOLO,45.35,11.67,Veneto
10029,TRIVERO,45.67,8.17,Piemonte
10054,SPECCHIA,39.94,18.31,Puglia
10060,CANINO,42.45,11.75,Lazio
10088,ORSARA DI PUGLIA,41.28,15.27,Puglia
10188,CASTRIGNANO DE' GRECI,40.2,18.3,Puglia
10200,MONTERODUNI,41.52,14.17,Molise
10286,MONTE CIMONE,44.19,10.7,Emilia-Romagna
10311,"GAZZO, VENETO",45.28,11.88,Veneto
10388,SOZZAGO,45.4,8.72,Piemonte
10403,PIANA DI MONTE VERNA,41.17,14.33,Campania
10441,MONTEGALLO,42.83,13.33,Marche
10459,OSTIGLIA,45.07,11.13,Lombardia
10522,"BEE, PIEDMONT",45.97,8.58,Piemonte
10534,CALDES,46.37,10.95,Trentino-Alto Adige/Südtirol
10538,CROCETTA (CINISELLO BALSAMO),45.55,9.22,Lombardia
10546,CAMPOLI APPENNINO,41.73,13.68,Lazio
10591,SCHEGGIA E PASCELUPO,43.4,12.67,Umbria
10640,POPULONIA,42.99,10.49,Toscana
10709,LEONESSA,42.57,12.97,Lazio
10721,ASIGLIANO VERCELLESE,45.27,8.42,Piemonte
10747,VILLA SANT'ANTONIO,39.87,8.9,Sardigna/Sardegna
10778,RIVA DEL GARDA,45.88,10.85,Trentino-Alto Adige/Südtirol
10796,RAUHKOFEL,47.08,12.09,Trentino-Alto Adige/Südtirol
10819,MARANO EQUO,42.0,13.02,Lazio
10828,MAMMOLA,38.37,16.23,Calabria
10835,FIESSO UMBERTIANO,44.97,11.6,Veneto
10878,SANT'ANTONIO DI GALLURA,41.0,9.3,Sardigna/Sardegna
10890,CIMA PIAZZI,46.42,10.29,Lombardia
10920,MONTESCUDAIO,43.33,10.63,Toscana
10928,ALANO DI PIAVE,45.9,11.92,Veneto
10991,BOLLATE,45.55,9.12,Lombardia
10992,AMBIN GROUP,45.14,6.83,Piemonte
11016,BARANO D'ISCHIA,40.72,13.92,Campania
11025,"CAMINO, PIEDMONT",45.17,8.28,Piemonte
11052,POZZOLO FORMIGARO,44.8,8.78,Piemonte
11117,CASTEGGIO,45.02,9.13,Lombardia
11160,MONTEGALDA,45.45,11.68,Veneto
11411,MONTAGNA IN VALTELLINA,46.18,9.9,Lombardia
11478,PALARUFFINI,45.06,7.63,Piemonte
11546,SPIGNO SATURNIA,41.3,13.73,Lazio
11554,VETTO,44.48,10.33,Emilia-Romagna
11581,VANZONE CON SAN CARLO,45.97,8.1,Piemonte
11601,"CREMA, LOMBARDY",45.37,9.68,Lombardia
11697,AQUILA D'ARROSCIA,44.08,8.0,Liguria
11734,MEZZEGRA,45.98,9.21,Lombardia
11737,CUNEO RAILWAY STATION,44.39,7.54,Piemonte
11859,SAVOIA DI LUCANIA,40.57,15.55,Basilicata
11872,"TERRAZZO, VENETO",45.17,11.4,Veneto
11879,PIEDICAVALLO,45.7,7.95,Piemonte
11970,CASTIGLIONE OLONA,45.75,8.88,Lombardia
11998,CORROPOLI,42.82,13.83,Abruzzo
12009,CHIVASSO RAILWAY STATION,45.19,7.89,Piemonte
12064,SAN MARTINO CANAVESE,45.4,7.82,Piemonte
12120,TERRANUOVA BRACCIOLINI,43.55,11.58,Toscana
12178,CAMPOBASSO RAILWAY STATION,41.56,14.66,Molise
12234,PADRIA,40.4,8.63,Sardigna/Sardegna
12318,ANZANO DEL PARCO,45.77,9.2,Lombardia
12352,CHIAVENNA,46.32,9.4,Lombardia
12455,SANTA MARGHERITA DI STAFFORA,44.73,9.28,Lombardia
12488,USSARAMANNA,39.7,8.92,Sardigna/Sardegna
12502,DOVERA,45.37,9.53,Lombardia
12534,MASSIMENO,46.15,10.77,Trentino-Alto Adige/Südtirol
12559,MANERBA DEL GARDA,45.55,10.55,Lombardia
12575,PRAGELATO,45.02,6.95,Piemonte
12600,RONZO-CHIENIS,45.89,10.95,Trentino-Alto Adige/Südtirol
12625,SERRAVALLE SCRIVIA,44.73,8.85,Piemonte
12698,NOTARESCO,42.65,13.9,Abruzzo
12747,POGGIODOMO,42.72,12.93,Umbria
12790,GUARDIA SANFRAMONDI,41.25,14.6,Campania
12807,MOLINI DI TRIORA,43.98,7.77,Liguria
12830,RUFINA,43.82,11.48,Toscana
12907,ATRANI,40.63,14.62,Campania
12917,SEXTEN,46.7,12.35,Trentino-Alto Adige/Südtirol
12921,TRIGGIANO RAILWAY STATION,41.06,16.92,Puglia
12937,ORERO,44.4,9.28,Liguria
12955,GIURDIGNANO,40.12,18.42,Puglia
13084,AIRUNO RAILWAY STATION,45.76,9.42,Lombardia
13123,SAN GIORGIO DI MANTOVA,45.17,10.83,Lombardia
13135,MONTE ROBERTO,43.48,13.13,Marche
13317,FORIO,40.74,13.86,Campania
13320,CICOGNOLO,45.17,10.2,Lombardia
13327,COLLELONGO,41.89,13.59,Abruzzo
13329,VIÙ,45.23,7.37,Piemonte
13415,SAMASSI,39.48,8.9,Sardigna/Sardegna
13456,MONTECOPIOLO,43.83,12.37,Emilia-Romagna
13519,MONTE ELTO,46.04,10.2,Lombardia
13540,FRANCAVILLA BISIO,44.72,8.73,Piemonte
13549,CINO,46.15,9.48,Lombardia
13575,PRATO SESIA,45.65,8.38,Piemonte
13658,MERATE,45.7,9.43,Lombardia
13732,ISELLE DI TRASQUERA RAILWAY STATION,46.21,8.21,Piemonte
13739,VILLA SAN PIETRO,39.03,9.0,Sardigna/Sardegna
13750,SORISO,45.73,8.42,Piemonte
13838,MALBORGHETTO VALBRUNA,46.5,13.45,Friuli-Venezia Giulia
13907,ROBASSOMERO,45.2,7.57,Piemonte
13909,LIVORNO CENTRALE RAILWAY STATION,43.55,10.34,Toscana
13943,CAREMA,45.58,7.82,Piemonte
13973,ALGHERO-FERTILIA AIRPORT,40.63,8.29,Sardigna/Sardegna
14082,PREONE,46.4,12.87,Friuli-Venezia Giulia
14174,CARAPELLE CALVISIO,42.3,13.69,Abruzzo
14247,MEZZENILE,45.3,7.4,Piemonte
14251,"SILANUS, SARDINIA",40.28,8.88,Sardigna/Sardegna
14252,MASONE,44.5,8.72,Liguria
14265,CIVO,46.15,9.57,Lombardia
14284,CARIMATE RAILWAY STATION,45.7,9.11,Lombardia
14307,CURTATONE,45.15,10.72,Lombardia
14309,PIEVE D'OLMI,45.08,10.12,Lombardia
14321,LUSEVERA,46.27,13.27,Friuli-Venezia Giulia
14329,CARERI,38.18,16.12,Calabria
14607,TREZZO TINELLA,44.68,8.1,Piemonte
14638,PAISCO LOVENO,46.08,10.29,Lombardia
14736,CAMPIGLIA DEI BERICI,45.33,11.53,Veneto
14751,VADO LIGURE,44.27,8.43,Liguria
14761,AZZANELLO,45.32,9.92,Lombardia
14798,FORMIA-GAETA RAILWAY STATION,41.26,13.61,Lazio
14863,CESENA RAILWAY STATION,44.15,12.25,Emilia-Romagna
14887,CONTURSI TERME,40.63,15.23,Campania
14906,GROTTAGLIE,40.53,17.43,Puglia
14955,NATZ-SCHABS,46.77,11.67,Trentino-Alto Adige/Südtirol
15030,"URI, SARDINIA",40.63,8.5,Sardigna/Sardegna
15040,SOLARUSSA,39.95,8.68,Sardigna/Sardegna
15042,FROSOLONE,41.6,14.45,Molise
15043,MERANA,44.52,8.3,Piemonte
15057,CARDITO,40.95,14.3,Campania
15098,BASTIDA PANCARANA,45.08,9.05,Lombardia
15115,ELEPHANT AND OBELISK,41.9,12.48,Lazio
15151,POSSAGNO,45.85,11.88,Veneto
15204,TORRE BORMIDA,44.57,8.15,Piemonte
15255,MONTE RESEGONE,45.86,9.47,Lombardia
15299,NONIO,45.83,8.37,Piemonte
15301,CORTENOVA,46.0,9.38,Lombardia
15313,CAGNANO AMITERNO,42.46,13.23,Abruzzo
15331,MONTE POLITRI,44.99,7.02,Piemonte
15391,UDINE RAILWAY STATION,46.06,13.24,Friuli-Venezia Giulia
15451,ROCCA BARBENA,44.16,8.13,Liguria
15493,SORICO,46.17,9.38,Lombardia
15638,SAVONA RAILWAY STATION,44.31,8.47,Liguria
15735,RATSCHINGS,46.88,11.4,Trentino-Alto Adige/Südtirol
15807,VERMEZZO,45.4,8.97,Lombardia
16004,VALLE SAN NICOLAO,45.6,8.13,Piemonte
16033,AKRAI,37.06,14.9,Sicilia
16051,CARDILE,40.27,15.24,Campania
16053,SANTA MARIA LA NOVA (CAMPAGNA),40.63,15.08,Campania
16055,LINATE AIRPORT,45.45,9.28,Lombardia
16068,QUARRATA,43.85,10.98,Toscana
16112,GAZOLDO DEGLI IPPOLITI,45.2,10.58,Lombardia
16123,VELLEZZO BELLINI,45.27,9.1,Lombardia
16183,BORZONASCA,44.42,9.38,Liguria
16201,CARMIANO,40.35,18.05,Puglia
16206,FORLÌ DEL SANNIO,41.7,14.18,Molise
16219,"COLOGNE, LOMBARDY",45.58,9.93,Lombardia
16239,BONDONE,45.8,10.55,Trentino-Alto Adige/Südtirol
16369,FERRARA,44.83,11.62,Emilia-Romagna
16436,LORENZANA,43.53,10.53,Toscana
16537,SAN MAURO DI SALINE,45.57,11.12,Veneto
16553,SILVANO D'ORBA,44.68,8.67,Piemonte
16555,GIFFONI SEI CASALI,40.72,14.9,Campania
16666,"CANDIDA, CAMPANIA",40.95,14.88,Campania
16749,CASERTA RAILWAY STATION,41.07,14.33,Campania
16786,FORNO DI ZOLDO,46.35,12.18,Veneto
16876,"CORREGGIO, EMILIA-ROMAGNA",44.77,10.78,Emilia-Romagna
16916,"ALBA, PIEDMONT",44.7,8.03,Piemonte
16965,MONTE PETRELLA,41.32,13.67,Lazio
16970,CASALBORGONE,45.13,7.93,Piemonte
16977,PREDOSA,44.75,8.65,Piemonte
17023,DESULO,40.0,9.23,Sardigna/Sardegna
17046,FOSSALTO,41.67,14.55,Molise
17116,RIPA TEATINA,42.35,14.23,Abruzzo
17182,MONTESCUDO,43.92,12.55,Emilia-Romagna
17186,VINCENZO FLORIO AIRPORT TRAPANI–BIRGI,37.91,12.49,Sicilia
17213,PORTULA,45.67,8.18,Piemonte
17363,BOVALINO,38.15,16.17,Calabria
17419,PUNTA BAGNÀ,45.14,6.71,Piemonte
17431,POTENZA PICENA,43.37,13.62,Marche
17449,TRIBULAUN,46.98,11.33,Trentino-Alto Adige/Südtirol
17589,MALITO,39.15,16.25,Calabria
17614,CUCCARO MONFERRATO,44.98,8.45,Piemonte
17651,VALMOZZOLA,44.57,9.88,Emilia-Romagna
17671,"LUGO, EMILIA-ROMAGNA",44.42,11.92,Emilia-Romagna
17700,TORRICELLA VERZATE,45.02,9.17,Lombardia
17730,SAN GIOVANNI VALDARNO RAILWAY STATION,43.57,11.53,Toscana
17746,CASALGRASSO,44.82,7.63,Piemonte
17816,CELLE DI SAN VITO,41.33,15.18,Puglia
17820,CASTAGNOLE PIEMONTE,44.9,7.57,Piemonte
17941,VILLA DI MAIANO,43.79,11.3,Toscana
17950,OVADA,44.64,8.64,Piemonte
17952,MONTE BO,45.72,8.0,Piemonte
18033,SAN DONATO VAL DI COMINO,41.7,13.82,Lazio
18071,PONTE DI BRENTA RAILWAY STATION,45.43,11.95,Veneto
18112,BITETTO–PALO DEL COLLE RAILWAY STATION,41.05,16.74,Puglia
18324,TERZO D'AQUILEIA,45.8,13.33,Friuli-Venezia Giulia
18430,ZINASCO,45.13,9.03,Lombardia
18462,LORANZÈ,45.43,7.82,Piemonte
18492,TAUFERS IM MÜNSTERTAL,46.65,10.47,Trentino-Alto Adige/Südtirol
18501,GRIMACCO,46.15,13.57,Friuli-Venezia Giulia
18655,NOICÀTTARO,41.03,16.98,Puglia
18695,ROTECK,46.72,10.98,Trentino-Alto Adige/Südtirol
18709,ZOAGLI,44.33,9.27,Liguria
18747,"GOZZANO, ITALY",45.75,8.43,Piemonte
18751,FABRIANO,43.33,12.92,Marche
18787,ENNA,37.56,14.28,Sicilia
18854,FRASSINELLO MONFERRATO,45.03,8.38,Piemonte
18889,TERRASINI,38.15,13.08,Sicilia
18935,SAN BIAGIO DI CALLALTA,45.68,12.38,Veneto
19076,MATIGGE,42.9,12.73,Umbria
19170,MONTE ALTISSIMO DI NAGO,45.81,10.89,Trentino-Alto Adige/Südtirol
19230,"MORTARA, LOMBARDY",45.25,8.75,Lombardia
19235,"VITA, SICILY",37.87,12.82,Sicilia
19364,AMBLAR,46.4,11.15,Trentino-Alto Adige/Südtirol
19399,SAN VENERIO LIGHTHOUSE,44.03,9.85,Liguria
19404,MONTEGALDELLA,45.43,11.67,Veneto
19426,ISOLA DEL GIGLIO,42.35,10.9,Toscana
19428,CAPRIOLO,45.64,9.93,Lombardia
19430,CASAGIOVE,41.07,14.3,Campania
19455,CAPRIOLI,40.08,15.27,Campania
19478,COLLE SAN MAGNO,41.55,13.7,Lazio
19512,OGGIONO,45.78,9.35,Lombardia
19540,BASSANO DEL GRAPPA,45.77,11.73,Veneto
19631,SENEGHE,40.08,8.62,Sardigna/Sardegna
19688,PARTANNA,37.72,12.88,Sicilia
19718,"SAVELLI, CALABRIA",39.32,16.78,Calabria
19719,CIRIÉ,45.23,7.6,Piemonte
19776,MONCHIO DELLE CORTI,44.42,10.12,Emilia-Romagna
19832,VAL MASINO,46.22,9.63,Lombardia
19845,FIGLINE E INCISA VALDARNO,43.66,11.45,Toscana
19921,MANSUÈ,45.82,12.53,Veneto
20011,PANIA DELLA CROCE,44.04,10.32,Toscana
20073,MARSALA,37.8,12.43,Sicilia
20169,CACCAMO,37.93,13.67,Sicilia
20205,POGNO,45.75,8.43,Piemonte
20207,MONTE MEIDASSA,44.72,7.07,Piemonte
20273,BALESTRATE,38.05,13.12,Sicilia
20374,MARNATE,45.63,8.9,Lombardia
20378,SAVIGNANO SUL RUBICONE,44.1,12.4,Emilia-Romagna
20451,MONTE FARNO,45.83,9.9,Lombardia
20470,MALGRATE,45.85,9.4,Lombardia
20584,GIANTS' GRAVE OF CODDU VECCHIU,41.05,9.36,Sardigna/Sardegna
20599,CARBOGNANO,42.32,12.25,Lazio
20621,ACRI,39.5,16.38,Calabria
20648,MONEGLIA,44.23,9.48,Liguria
20667,MONTE COLMA,44.58,8.7,Liguria
20868,MONTE SETTEPANI,44.24,8.2,Liguria
20959,BOSCHI SANT'ANNA,45.22,11.37,Veneto
21037,CERANESI,44.5,8.87,Liguria
21095,CHIUSDINO,43.15,11.08,Toscana
21121,TURRIACO,45.82,13.45,Friuli-Venezia Giulia
21132,PONTOGLIO,45.57,9.85,Lombardia
21160,CALANGIANUS,40.92,9.2,Sardigna/Sardegna
21177,VEZZANO LIGURE,44.13,9.88,Liguria
21199,SAN ZENONE AL PO,45.07,9.35,Lombardia
21224,MARIGLIANO,40.93,14.45,Campania
21248,ROVIGO RAILWAY STATION,45.08,11.78,Veneto
21266,GLURNS,46.67,10.55,Trentino-Alto Adige/Südtirol
21287,SPONGANO,40.02,18.37,Puglia
21294,BRUNECKER TURM,46.54,11.83,Trentino-Alto Adige/Südtirol
21318,SAN MARTINO AL TAGLIAMENTO,46.02,12.87,Friuli-Venezia Giulia
21400,SARULE,40.23,9.17,Sardigna/Sardegna
21499,BELVEGLIO,44.83,8.33,Piemonte
21548,SEGUSINO,45.92,11.95,Veneto
21619,"PILA, PIEDMONT",45.77,8.08,Piemonte
21779,PREMIA,46.27,8.33,Piemonte
21831,TRASACCO,41.96,13.54,Abruzzo
21910,CASTEL SAN GIOVANNI,45.05,9.43,Emilia-Romagna
21913,PARABIAGO,45.55,8.95,Lombardia
21986,PIERANICA,45.42,9.62,Lombardia
22054,PEGOGNAGA,45.0,10.85,Lombardia
22085,OPPEANO,45.3,11.18,Veneto
22087,FIAVÉ,46.0,10.84,Trentino-Alto Adige/Südtirol
22135,LIMIDO COMASCO,45.68,8.98,Lombardia
22162,PIZZO DEL TORTO,46.36,9.3,Lombardia
22172,CANDIA LOMELLINA,45.18,8.6,Lombardia
22254,MANTOVA RAILWAY STATION,45.16,10.78,Lombardia
22267,PALMOLI,41.94,14.58,Abruzzo
22271,VAHRN,46.75,11.63,Trentino-Alto Adige/Südtirol
22319,PIETRARUBBIA,43.8,12.38,Marche
22387,MARANZANA,44.77,8.48,Piemonte
22412,PIZ CENGALO,46.29,9.6,Lombardia
22476,SANTO STEFANO DI CADORE,46.57,12.55,Veneto
22505,ALIANO,40.32,16.23,Basilicata
22588,ARITZO,39.95,9.2,Sardigna/Sardegna
22589,BIANCAVILLA,37.65,14.87,Sicilia
22613,MONTE ACERO,41.26,14.5,Campania
22641,GINOSTRA (VILLAGE),38.78,15.18,Sicilia
22674,CICERALE,40.34,15.13,Campania
22713,TRECENTA,45.03,11.45,Veneto
22849,CASTELMOLA,37.87,15.28,Sicilia
22859,RIGNANO GARGANICO,41.68,15.58,Puglia
22885,"TORRALBA, SARDINIA",40.52,8.77,Sardigna/Sardegna
22935,AIELLI,42.08,13.59,Abruzzo
22956,CARDETO,38.08,15.77,Calabria
22963,IETAS,37.97,13.2,Sicilia
22968,BASCAPÈ,45.3,9.32,Lombardia
22994,CANNARA,43.0,12.58,Umbria
23037,ROMAGNANO SESIA RAILWAY STATION,45.63,8.38,Piemonte
23043,MONTE GAVIA,46.36,10.47,Lombardia
23078,VAL DELLA TORRE,45.17,7.43,Piemonte
23107,VOLTIDO,45.12,10.27,Lombardia
23113,MOTTA DE' CONTI,45.18,8.53,Piemonte
23132,BOVA MARINA,37.93,15.92,Calabria
23203,GIOIA DEL COLLE RAILWAY STATION,40.8,16.92,Puglia
23207,BARAGIANO,40.68,15.6,Basilicata
23220,MONTICELLI BRUSATI,45.63,10.1,Lombardia
23252,SCHIO RAILWAY STATION,45.71,11.36,Veneto
23319,FRANCESCO CRISPI RAILWAY STATION,41.12,16.85,Puglia
23320,CASTENEDOLO,45.53,10.23,Lombardia
23565,VILLASOR,39.38,8.93,Sardigna/Sardegna
23587,PIOBESI D'ALBA,44.73,7.98,Piemonte
23633,VILLAR PEROSA,44.92,7.25,Piemonte
23654,PIETRAVAIRANO,41.33,14.17,Campania
23694,BELLINO,44.58,7.03,Piemonte
23822,NONANTOLA,44.68,11.04,Emilia-Romagna
23879,BRITTOLI,42.32,13.86,Abruzzo
24032,CAVALLASCA,45.82,9.03,Lombardia
24080,ARIENZO,41.02,14.5,Campania
24120,MOLA DI BARI,41.07,17.08,Puglia
24175,ALPIGNANO RAILWAY STATION,45.09,7.52,Piemonte
24205,NEGRAR,45.53,10.93,Veneto
24208,TORRE ORSAIA,40.13,15.47,Campania
24316,SANTA MARIA DI CASTELLABATE,40.29,14.95,Campania
24352,LEGNANO RAILWAY STATION,45.59,8.91,Lombardia
24355,"VITTORIA, SICILY",36.95,14.53,Sicilia
24387,THURWIESERSPITZE,46.5,10.52,Trentino-Alto Adige/Südtirol
24388,SACILE,45.97,12.5,Friuli-Venezia Giulia
24389,RITTNER HORN,46.62,11.46,Trentino-Alto Adige/Südtirol
24437,STADIO RINO MERCANTE,45.77,11.75,Veneto
24471,CAROLEI,39.25,16.22,Calabria
24531,CASTEL D'AIANO,44.27,11.0,Emilia-Romagna
24534,ROVEREDO IN PIANO,46.02,12.62,Friuli-Venezia Giulia
24554,SANTA MARIA DI SALA,45.5,12.03,Veneto
24640,CINTE TESINO,46.05,11.62,Trentino-Alto Adige/Südtirol
24658,MONTE LIETO,42.84,13.18,Marche
24738,COSTA VESCOVATO,44.8,8.92,Piemonte
24768,COREGLIA LIGURE,44.38,9.27,Liguria
24777,CAMPODIPIETRA,41.55,14.75,Molise
24813,"BOMBA, ABRUZZO",42.03,14.37,Abruzzo
24824,OLEGGIO,45.6,8.63,Piemonte
24837,OGLIANICO,45.33,7.7,Piemonte
24890,TRADATE,45.7,8.92,Lombardia
24897,TAIPANA,46.25,13.33,Friuli-Venezia Giulia
24912,POVOLETTO,46.12,13.28,Friuli-Venezia Giulia
24957,FESCA-SAN GIROLAMO RAILWAY STATION,41.13,16.82,Puglia
24986,SEXTEN DOLOMITES,46.65,12.32,Trentino-Alto Adige/Südtirol
24993,MOIOLA,44.32,7.38,Piemonte
25257,CASTELNUOVO DELLA DAUNIA,41.58,15.12,Puglia
25263,COSSATO RAILWAY STATION,45.56,8.18,Piemonte
25335,BESOZZO,45.85,8.67,Lombardia
25357,SETTIMO SAN PIETRO,39.28,9.18,Sardigna/Sardegna
25377,VICO EQUENSE,40.67,14.43,Campania
25484,RIARDO,41.27,14.15,Campania
25581,SARMEDE,45.98,12.38,Veneto
25647,JK PLACE CAPRI,40.56,14.22,Campania
25705,SAPONARA,38.2,15.43,Sicilia
25723,GHIFFA,45.95,8.62,Piemonte
25824,"SAN CANCIANO, VENICE",45.44,12.34,Veneto
25912,TRENTINARA,40.4,15.12,Campania
25915,BIANDRONNO,45.82,8.72,Lombardia
25935,VALLATA,41.03,15.25,Campania
25963,DIANO RAILWAY STATION,43.92,8.07,Liguria
25990,SALE MARASINO,45.72,10.12,Lombardia
26006,MONTICELLO BRIANZA,45.72,9.32,Lombardia
26015,REGGIO EMILIA AV MEDIOPADANA RAILWAY STATION,44.73,10.66,Emilia-Romagna
26219,FARA VICENTINO,45.73,11.55,Veneto
26252,VALEGGIO SUL MINCIO,45.35,10.73,Veneto
26283,PIZZO BADILE CAMUNO,46.0,10.4,Lombardia
26303,"ARCOLA, LIGURIA",44.12,9.9,Liguria
26336,VALLE AGRICOLA,41.42,14.25,Campania
26390,VELEZZO LOMELLINA,45.17,8.73,Lombardia
26466,CORNIGLIO,44.48,10.08,Emilia-Romagna
26540,ROCCA LA MEJA,44.42,7.33,Piemonte
26550,JACURSO,38.85,16.38,Calabria
26584,CASAPINTA,45.58,8.22,Piemonte
26641,"SOLARO, LOMBARDY",45.6,9.08,Lombardia
26751,"SIRIS, SARDINIA",39.71,8.77,Sardigna/Sardegna
26787,LISCATE,45.48,9.42,Lombardia
26789,SASSO DI CASTALDA,40.48,15.68,Basilicata
26854,ALZANO SCRIVIA,45.02,8.88,Piemonte
26864,"CASTO, LOMBARDY",45.7,10.32,Lombardia
26939,MACOMER,40.27,8.78,Sardigna/Sardegna
26952,VILLA LITERNO,41.02,14.07,Campania
26959,CREMOSANO,45.4,9.63,Lombardia
26964,SANTO STEFANO DI SESSANIO,42.35,13.64,Abruzzo
26992,KURTINIG AN DER WEINSTRASSE,46.27,11.22,Trentino-Alto Adige/Südtirol
27011,CASTELLO DI SANTA MARGHERITA LIGURE,44.33,9.21,Liguria
27041,GADONI,39.92,9.18,Sardigna/Sardegna
27064,FORLÌ,44.23,12.05,Emilia-Romagna
27090,CHERASCO,44.65,7.87,Piemonte
27134,CAGLIARI RAILWAY STATION,39.22,9.11,Sardigna/Sardegna
27240,AULETTA,40.56,15.42,Campania
27251,POMARANCE,43.28,10.87,Toscana
27277,PUNTA TERSIVA,45.62,7.48,Valle d'Aosta / Vallée d'Aoste
27294,JOHN CABOT UNIVERSITY,41.89,12.47,Lazio
27420,SAN MAURO CILENTO,40.23,15.05,Campania
27434,"BURGOS, SARDINIA",40.39,8.99,Sardigna/Sardegna
27469,SUPERSANO,40.02,18.25,Puglia
27494,MONTE COSTA CALDA,40.41,15.04,Campania
27631,MAGLIANO VETERE,40.35,15.24,Campania
27670,BESANO,45.88,8.88,Lombardia
27773,BOLOGNA CENTRALE RAILWAY STATION,44.51,11.34,Emilia-Romagna
27901,SANTERAMO RAILWAY STATION,40.8,16.76,Puglia
27919,BUSETO PALIZZOLO,38.02,12.73,Sicilia
28011,CASTELLO DI CACCAMO,37.93,13.66,Sicilia
28047,BERCHIDDA,40.78,9.17,Sardigna/Sardegna
28111,BRANDICO,45.45,10.05,Lombardia
28128,SANT'ANGELO IN LIZZOLA,43.83,12.8,Marche
28148,CAPO CIRCEO LIGHTHOUSE,41.22,13.07,Lazio
28158,PADULA,40.34,15.66,Campania
28181,PADULI,41.17,14.88,Campania
28234,MONTE VISO,44.67,7.09,Piemonte
28312,SANT'ARCANGELO TRIMONTE,41.15,14.93,Campania
28347,MONTE CHIERICO,46.05,9.81,Lombardia
28349,VALPRATO SOANA,45.52,7.55,Piemonte
28417,TORRICELLA PELIGNA,42.02,14.27,Abruzzo
28452,COSSIGNANO,42.98,13.68,Marche
28531,MIRANO,45.5,12.1,Veneto
28552,SAN BERNARDINO VERBANO,45.95,8.52,Piemonte
28655,AGIRA,37.65,14.52,Sicilia
28724,VIVARO ROMANO,42.1,13.0,Lazio
28738,ARIELLI,42.27,14.3,Abruzzo
28818,BRESCIA AND GARDA PREALPS,45.94,10.7,Trentino-Alto Adige/Südtirol
28847,VASANELLO,42.41,12.35,Lazio
28859,"MASI, VENETO",45.12,11.5,Veneto
28951,CIMA GARLENDA,44.06,7.76,Liguria
28962,LORENZAGO DI CADORE,46.48,12.47,Veneto
28982,UGGIANO LA CHIESA,40.1,18.45,Puglia
29015,CIMOLAIS,46.28,12.43,Friuli-Venezia Giulia
29019,SAN MICHELE AL TAGLIAMENTO,45.76,13.0,Veneto
29039,VILLA SAN GIOVANNI,38.22,15.63,Calabria
29047,MAGENTA RAILWAY STATION,45.47,8.88,Lombardia
29110,"BRIONE, TRENTINO",45.9,10.58,Trentino-Alto Adige/Südtirol
29283,BELVÌ,39.97,9.18,Sardigna/Sardegna
29488,MONTE FASCE,44.41,9.03,Liguria
29491,CAIAZZO,41.18,14.36,Campania
29501,MONTE BOVE,42.94,13.19,Marche
29529,MOTTA VISCONTI,45.28,9.0,Lombardia
29550,ERBÉ,45.25,10.97,Veneto
29589,MERIDE,45.88,8.93,Lombardia
29612,CUCCIAGO,45.73,9.1,Lombardia
29646,"LORIA, VENETO",45.73,11.87,Veneto
29677,PALÙ,45.32,11.15,Veneto
29771,BUSACHI,40.03,8.9,Sardigna/Sardegna
29791,BORGO VELINO,42.4,13.07,Lazio
29813,COMACCHIO,44.7,12.18,Emilia-Romagna
29819,TERGU,40.87,8.72,Sardigna/Sardegna
29846,CUPRA MARITTIMA,43.02,13.87,Marche
29877,MONTE BISBINO,45.87,9.07,Lombardia
29906,CALOVETO,39.5,16.77,Calabria
29917,TUFINO,40.95,14.57,Campania
29920,ERLI,44.13,8.1,Liguria
30085,RHÊMES-NOTRE-DAME,45.57,7.12,Valle d'Aosta / Vallée d'Aoste
30156,PARÈ,45.82,9.0,Lombardia
30184,NELLO CASSATA ETHNOHISTORY MUSEUM,38.16,15.24,Sicilia
30323,PALAZZO BORGHESE (MOUNTAIN),42.87,13.24,Marche
30385,PATÙ,39.85,18.33,Puglia
30410,FIUMINATA,43.18,12.93,Marche
30478,FINO MORNASCO,45.75,9.03,Lombardia
30539,FURCHETTA,46.61,11.77,Trentino-Alto Adige/Südtirol
30684,ERVE,45.82,9.45,Lombardia
30718,TERNI,42.57,12.65,Umbria
30758,CASTELMEZZANO,40.53,16.05,Basilicata
30777,CASTIGLION FIBOCCHI,43.53,11.77,Toscana
30924,"RIVOLI, PIEDMONT",45.07,7.52,Piemonte
31082,CASTELFIORENTINO,43.6,10.97,Toscana
31093,"LEVICE, PIEDMONT",44.53,8.15,Piemonte
31130,POIRINO,44.92,7.85,Piemonte
31156,VINZAGLIO,45.32,8.52,Piemonte
31212,SAVIGLIANO,44.65,7.63,Piemonte
31236,TERRAVECCHIA,39.47,16.95,Calabria
31296,SANCTUARY OF GRECCIO,42.46,12.75,Lazio
31329,CROCE DI MONTE BOVE,42.93,13.18,Marche
31523,"FRONTINO, MARCHE",43.76,12.38,Marche
31689,MONTE VIOZ,46.4,10.63,Trentino-Alto Adige/Südtirol
31787,OSTELLATO,44.75,11.93,Emilia-Romagna
31917,MAIELLA,42.09,14.09,Abruzzo
31981,LUBRIANO,42.63,12.1,Lazio
32025,OVARO,46.48,12.87,Friuli-Venezia Giulia
32029,FOSSALTA DI PIAVE,45.65,12.52,Veneto
32043,CERIGNOLA CAMPAGNA RAILWAY STATION,41.32,15.9,Puglia
32141,MARTINA FRANCA,40.63,17.03,Puglia
32202,BRUSIMPIANO,45.95,8.88,Lombardia
32213,CORREZZOLA,45.23,12.07,Veneto
32219,SORANO,42.68,11.71,Toscana
32238,"PORTE, PIEDMONT",44.88,7.27,Piemonte
32279,"FLORESTA, SICILY",37.98,14.92,Sicilia
32289,VAPRIO D'ADDA,45.58,9.53,Lombardia
32365,LIMBADI,38.57,15.97,Calabria
32398,CORNO GRANDE,42.47,13.57,Abruzzo
32464,PATERNO CALABRO,39.23,16.27,Calabria
32487,GELA,37.07,14.25,Sicilia
32701,CAMPOFORMIDO,46.02,13.17,Friuli-Venezia Giulia
32703,MONTE CAPLONE,45.8,10.64,Lombardia
32782,"CALLIANO, TRENTINO",45.93,11.08,Trentino-Alto Adige/Südtirol
32951,MADESIMO,46.43,9.35,Lombardia
32981,BESATE,45.32,8.97,Lombardia
33071,PUNTA DI CAPEL ROSSO LIGHTHOUSE,42.24,11.11,Toscana
33076,SCILLATO,37.85,13.9,Sicilia
33107,PRECOTTO,45.51,9.22,Lombardia
33124,MOLLIA,45.82,8.03,Piemonte
33193,ACQUAVIVA D'ISERNIA,41.67,14.15,Molise
33281,PALMARIGGI,40.13,18.38,Puglia
33398,PROVEIS,46.48,11.02,Trentino-Alto Adige/Südtirol
33407,CAVAION VERONESE,45.53,10.77,Veneto
33408,MONTOTTONE,43.07,13.58,Marche
33415,SAN BENEDETTO ULLANO,39.43,16.12,Calabria
33433,VENOSA,40.96,15.81,Basilicata
33452,TORRITA TIBERINA,42.23,12.62,Lazio
33500,TREPPO GRANDE,46.2,13.15,Friuli-Venezia Giulia
33506,PRATOLA SERRA,40.98,14.85,Campania
33599,"PATERNO, BASILICATA",40.38,15.73,Basilicata
33633,REGGIOLO,44.92,10.82,Emilia-Romagna
33648,GRAND PILIER D'ANGLE,45.83,6.88,Valle d'Aosta / Vallée d'Aoste
33661,VALFURVA,46.45,10.42,Lombardia
33701,"SANT'ONOFRIO, CALABRIA",38.7,16.15,Calabria
33736,CAPOTERRA,39.17,8.97,Sardigna/Sardegna
33740,VIGUZZOLO,44.9,8.92,Piemonte
33818,ALSERIO,45.78,9.2,Lombardia
33835,POVIGLIO,44.83,10.55,Emilia-Romagna
33852,COCCAGLIO,45.57,9.98,Lombardia
33877,PRAMAGGIORE,45.82,12.73,Veneto
33918,"ISCHIA, CAMPANIA",40.73,13.95,Campania
33946,PASTORANO,41.18,14.2,Campania
33980,BELLUNO,46.14,12.22,Veneto
33982,CAMAGNA MONFERRATO,45.02,8.43,Piemonte
34018,VILLANOVA DI CAMPOSAMPIERO,45.48,11.97,Veneto
34098,HOCHFEILER,46.97,11.73,Trentino-Alto Adige/Südtirol
34117,VALLEDORIA,40.93,8.82,Sardigna/Sardegna
34228,CORLETO MONFORTE,40.43,15.37,Campania
34272,"POSTA, LAZIO",42.52,13.1,Lazio
34327,"VALVERDE, SICILY",37.57,15.12,Sicilia
34335,BELCASTRO,39.02,16.78,Calabria
34370,CASTELLO DI ANNONE,44.88,8.32,Piemonte
34432,TORRICELLA DEL PIZZO,45.02,10.3,Lombardia
34513,FALCONE–BORSELLINO AIRPORT,38.18,13.1,Sicilia
34514,BERZO INFERIORE,45.93,10.28,Lombardia
34595,CELLARENGO,44.87,7.95,Piemonte
34599,PAOLISI,41.03,14.58,Campania
34678,SAN PIETRO AVELLANA,41.78,14.17,Abruzzo
34686,AVOLASCA,44.8,8.95,Piemonte
34760,SAN BENEDETTO VAL DI SAMBRO,44.22,11.23,Emilia-Romagna
34822,"VINCI, TUSCANY",43.78,10.92,Toscana
34830,ADRO,45.62,9.95,Lombardia
34924,BELVEDERE MARITTIMO,39.62,15.87,Calabria
34944,TORNOLO,44.48,9.63,Emilia-Romagna
35093,NORBELLO,40.13,8.83,Sardigna/Sardegna
35106,ALBRUNHORN,46.36,8.28,Piemonte
35189,ALLUMIERE,42.15,11.9,Lazio
35195,TORRENOVA,38.08,14.68,Sicilia
35226,"LIVO, LOMBARDY",46.17,9.3,Lombardia
35255,MONTE NERONE,43.56,12.52,Marche
35295,LUGO DI VICENZA,45.75,11.53,Veneto
35327,"ROTONDA, BASILICATA",39.95,16.03,Basilicata
35525,MONTE SAN SAVINO,43.33,11.73,Toscana
35556,MONTIERI,43.12,11.02,Toscana
35611,CASSAGO BRIANZA,45.73,9.28,Lombardia
35637,GREVE IN CHIANTI,43.58,11.32,Toscana
35645,DUEVILLE,45.63,11.55,Veneto
35724,CIANCIANA,37.52,13.43,Sicilia
35867,BARONISSI,40.75,14.77,Campania
35900,CAPO SANDALO LIGHTHOUSE,39.15,8.22,Sardigna/Sardegna
35921,PIZZONI,38.62,16.25,Calabria
35934,BORGARELLO,45.23,9.13,Lombardia
35965,TIZZANO VAL PARMA,44.52,10.2,Emilia-Romagna
36002,MOZZAGROGNA,42.21,14.45,Abruzzo
36005,OSTUNI,40.73,17.58,Puglia
36010,CAPRARICA DI LECCE,40.27,18.25,Puglia
36114,POMPU,39.73,8.8,Sardigna/Sardegna
36132,SAN CASCIANO DEI BAGNI,42.87,11.88,Toscana
36183,PREMENO,46.02,8.68,Piemonte
36196,CASALEGGIO RAILWAY STATION,45.49,8.49,Piemonte
36258,CADONEGHE,45.45,11.93,Veneto
36308,STADIO FRANCO OSSOLA,45.83,8.8,Lombardia
36327,"MADONNA DEL SASSO, PIEDMONT",45.8,8.37,Piemonte
36342,OLTREPÒ PAVESE,44.99,9.01,Lombardia
36402,SELVAZZANO DENTRO,45.38,11.78,Veneto
36417,PIZZOLI,42.43,13.31,Abruzzo
36446,PIEDIMONTE MATESE,41.35,14.35,Campania
36462,MOMBELLO MONFERRATO,45.13,8.25,Piemonte
36526,"SUNI, SARDINIA",40.28,8.55,Sardigna/Sardegna
36587,MIRADOLO TERME,45.15,9.48,Lombardia
36608,TORNATA,45.1,10.43,Lombardia
36674,MONTE VIDON CORRADO,43.12,13.48,Marche
36677,SANZA,40.25,15.55,Campania
36696,SAN GIACOMO DEGLI SCHIAVONI,41.97,14.95,Molise
36819,PANTELLERIA,36.83,11.95,Sicilia
36870,BELMONTE CALABRO,39.17,16.08,Calabria
36931,CAVRIGLIA,43.52,11.48,Toscana
36933,STADIO ENNIO TARDINI,44.79,10.34,Emilia-Romagna
37033,AQUARIUM OF GENOA,44.41,8.93,Liguria
37054,MONTE CIMONE DI TONEZZA,45.82,11.35,Veneto
37061,PORTE DI RENDENA,46.08,10.72,Trentino-Alto Adige/Südtirol
37095,LETTOPALENA,42.0,14.17,Abruzzo
37096,GALZIGNANO TERME,45.3,11.73,Veneto
37160,VILLA SANTA LUCIA,41.52,13.78,Lazio
37202,CANEVA,45.97,12.45,Friuli-Venezia Giulia
37226,LONIGO,45.38,11.38,Veneto
37326,ROGENO,45.78,9.27,Lombardia
37365,"PARENTI, CALABRIA",39.16,16.41,Calabria
37386,MONTE ARCIBESSI,37.03,14.72,Sicilia
37483,"GONZAGA, LOMBARDY",44.95,10.82,Lombardia
37510,"TEULADA, SARDINIA",38.97,8.77,Sardigna/Sardegna
37534,SALICE SALENTINO,40.38,17.97,Puglia
37643,GAGGIO MONTANO,44.2,10.93,Emilia-Romagna
37664,RIVELLO,40.08,15.77,Basilicata
37713,VARCO SABINO,42.24,13.02,Lazio
37739,GEROLA ALTA,46.07,9.57,Lombardia
37988,GROTTERIA,38.37,16.27,Calabria
38007,PISTERZO,41.49,13.27,Lazio
38035,SALZA IRPINA,40.92,14.88,Campania
38086,CASTELLO DI BIVONA,37.62,13.44,Sicilia
38157,MAGREGLIO,45.92,9.27,Lombardia
38243,MONTELEONE SABINO,42.23,12.85,Lazio
38246,SAMARATE,45.62,8.78,Lombardia
38290,CARANO,46.28,11.43,Trentino-Alto Adige/Südtirol
38319,ALBIZZATE-SOLBIATE ARNO RAILWAY STATION,45.72,8.81,Lombardia
38331,CAREZZANO,44.8,8.9,Piemonte
38360,GRANITI,37.88,15.22,Sicilia
38421,AFFI,45.55,10.77,Veneto
38445,PORTOMAGGIORE,44.7,11.8,Emilia-Romagna
38465,SUCCIVO,40.97,14.25,Campania
38543,TREQUANDA,43.18,11.67,Toscana
38561,VARAZZE,44.37,8.58,Liguria
38562,CERVARESE SANTA CROCE,45.42,11.68,Veneto
38628,FOSSÒ,45.38,12.05,Veneto
38650,LOCATE DI TRIULZI,45.35,9.22,Lombardia
38688,BOMPENSIERE,37.47,13.78,Sicilia
38751,SAN GIOVANNI TEATINO,42.42,14.2,Abruzzo
38838,PINO D'ASTI,45.05,7.98,Piemonte
38879,PIACENZA,45.05,9.7,Emilia-Romagna
38907,PRESOLANA,45.9,10.02,Lombardia
38928,"FAVARA, SICILY",37.32,13.66,Sicilia
38968,PROPATA,44.57,9.18,Liguria
38997,FORMIGARA,45.23,9.77,Lombardia
39005,LAUREANA DI BORRELLO,38.48,16.08,Calabria
39020,RICALDONE,44.73,8.47,Piemonte
39031,FUSIGNANO,44.47,11.97,Emilia-Romagna
39045,NERVIANO,45.55,8.98,Lombardia
39147,FILETTO,42.23,14.25,Abruzzo
39173,TEATRO COMUNALE PONCHIELLI,45.13,10.02,Lombardia
39357,CLOZ,46.42,11.08,Trentino-Alto Adige/Südtirol
39375,CALIZZANO,44.23,8.12,Liguria
39390,MONTEFORTE IRPINO,40.89,14.72,Campania
39543,COLLE D'ANCHISE,41.52,14.52,Molise
39614,MAGLIANO ALPI,44.45,7.8,Piemonte
39624,TIRANO (RHAETIAN RAILWAY STATION),46.22,10.17,Lombardia
39656,MOGLIANO VENETO,45.58,12.24,Veneto
39690,MONTE TRE DENTI,44.97,7.32,Piemonte
39721,GURRO,46.09,8.57,Piemonte
39731,"COLONNA, LAZIO",41.83,12.75,Lazio
39766,CAMPOBASSO,41.57,14.67,Molise
39774,MANTUA,45.16,10.79,Lombardia
39914,PORTACOMARO,44.96,8.26,Piemonte
39975,SERRAMANNA,39.43,8.92,Sardigna/Sardegna
40070,CARASCO,44.35,9.35,Liguria
40166,MEZZOJUSO,37.87,13.47,Sicilia
40221,DIAMANTE FONDO PATTI,38.11,13.19,Sicilia
40368,RAPALLO,44.35,9.23,Liguria
40383,SALA BOLOGNESE,44.62,11.25,Emilia-Romagna
40392,"CASTEL SANT'ANGELO, LAZIO",42.4,13.02,Lazio
40437,"PELLA, PIEDMONT",45.8,8.38,Piemonte
40440,ROCCABERNARDA,39.13,16.87,Calabria
40443,HINTERE EGGENSPITZE,46.48,10.78,Trentino-Alto Adige/Südtirol
40555,IZANO,45.35,9.75,Lombardia
40564,ENTRACQUE,44.25,7.4,Piemonte
40587,TRECASTAGNI,37.62,15.08,Sicilia
40596,MORAZZONE,45.77,8.83,Lombardia
40631,POGGIO PICENZE,42.32,13.54,Abruzzo
40760,CASTIGLIONE DEI PEPOLI,44.15,11.15,Emilia-Romagna
40768,CAVALLINO,40.32,18.2,Puglia
40815,TREVI NEL LAZIO,41.87,13.25,Lazio
40823,BRESCIA AIRPORT,45.43,10.33,Lombardia
40872,CEPPO MORELLI,45.97,8.07,Piemonte
40917,"OME, LOMBARDY",45.63,10.12,Lombardia
40998,CASSANO IRPINO,40.87,15.03,Campania
41017,"SAN DONATO, ORBETELLO",42.55,11.24,Toscana
41045,COSTIGLIOLE D'ASTI,44.78,8.18,Piemonte
41189,MARCIGNAGO,45.25,9.08,Lombardia
41284,BOSENTINO,46.0,11.22,Trentino-Alto Adige/Südtirol
41335,TORITTO,41.0,16.68,Puglia
41403,AGNA,45.17,11.97,Veneto
41413,MONFUMO,45.83,11.92,Veneto
41685,BEDIZZOLE,45.52,10.42,Lombardia
41876,CAPOLIVERI,42.75,10.38,Toscana
41962,SAPRI,40.07,15.63,Campania
41972,POGGIORSINI,40.92,16.25,Puglia
41975,SAN CALOGERO,38.57,16.02,Calabria
42059,MARETTO,44.95,8.03,Piemonte
42060,PONTINVREA,44.43,8.43,Liguria
42065,CASTELL'ALFERO,44.98,8.22,Piemonte
42144,WEISSKUGEL,46.8,10.73,Trentino-Alto Adige/Südtirol
42174,PARGHELIA,38.68,15.92,Calabria
42180,SAN MARTINO DI FINITA,39.48,16.1,Calabria
42181,ANGEL WITH THE SUPERSCRIPTION,41.9,12.48,Lazio
42282,CASTELLETTO D'ORBA,44.68,8.7,Piemonte
42306,NURALLAO,39.8,9.08,Sardigna/Sardegna
42338,CAMPO IMPERATORE,42.44,13.59,Abruzzo
42417,MANDURIA RAILWAY STATION,40.41,17.64,Puglia
42474,COLLECCHIO,44.75,10.22,Emilia-Romagna
42591,BUST OF ANTONIO BARBERINI (BERNINI),41.9,12.49,Lazio
42690,MARANO PRINCIPATO,39.3,16.18,Calabria
42710,"ALIFE, CAMPANIA",41.33,14.33,Campania
42753,OSCHIRI,40.72,9.1,Sardigna/Sardegna
42799,WILDE KREUZSPITZE,46.91,11.59,Trentino-Alto Adige/Südtirol
42802,MORETTA,44.75,7.53,Piemonte
42905,CASALE DI SCODOSIA,45.18,11.47,Veneto
42981,"ITALA, SICILY",38.05,15.43,Sicilia
43069,FERRAMONTI DI TARSIA,39.58,16.24,Calabria
43108,CALAVINO,46.05,10.98,Trentino-Alto Adige/Südtirol
43115,LANGKOFEL,46.52,11.74,Trentino-Alto Adige/Südtirol
43169,BERBENNO DI VALTELLINA,46.17,9.75,Lombardia
43172,OSSUCCIO,45.97,9.18,Lombardia
43272,CINIGIANO,42.89,11.39,Toscana
43286,POMPEIANA,43.85,7.88,Liguria
43357,SANTO STEFANO AL MARE,43.85,7.93,Liguria
43401,CARPIANO,45.33,9.27,Lombardia
43521,TOSCOLANO-MADERNO,45.65,10.62,Lombardia
43547,MORESCO,43.08,13.73,Marche
43577,"FIESCO, LOMBARDY",45.33,9.78,Lombardia
43624,RENATE,45.73,9.28,Lombardia
43684,MONGUZZO,45.78,9.23,Lombardia
43696,LOCOROTONDO,40.75,17.32,Puglia
43730,PAESANA,44.68,7.28,Piemonte
43731,"TETI, SARDINIA",40.1,9.12,Sardigna/Sardegna
43734,VENAFRUM,41.49,14.04,Molise
43736,PIZZO REDORTA,46.05,9.98,Lombardia
43755,CASTEL CAMPAGNANO,41.18,14.45,Campania
43793,POLLINO NATIONAL PARK,39.93,16.11,Basilicata
43799,PERINALDO,43.85,7.67,Liguria
43811,FARA SAN MARTINO,42.08,14.2,Abruzzo
43815,"VALVA, CAMPANIA",40.73,15.27,Campania
43848,CORTE DE' FRATI,45.22,10.1,Lombardia
43874,BONEFRO SANTA CROCE RAILWAY STATION,41.71,14.86,Molise
43894,SALVIROLA,45.35,9.78,Lombardia
43904,MOTTA DI LIVENZA,45.78,12.61,Veneto
43951,MONTECORICE,40.23,14.98,Campania
43953,TUSCULUM,41.8,12.71,Lazio
43957,PERDIFUMO,40.25,15.02,Campania
43969,GREAT ST BERNARD TUNNEL,45.86,7.17,Valle d'Aosta / Vallée d'Aoste
43993,MERONE,45.78,9.25,Lombardia
44026,BORGHETTO SANTO SPIRITO,44.1,8.23,Liguria
44055,SANTA TERESA GALLURA,41.25,9.18,Sardigna/Sardegna
44161,RAGALNA,37.63,14.93,Sicilia
44239,MODENA RAILWAY STATION,44.65,10.93,Emilia-Romagna
44268,TREMEZZO,45.98,9.23,Lombardia
44287,ORZIVECCHI,45.42,9.97,Lombardia
44292,FORINO,40.86,14.74,Campania
44293,TUILI,39.72,8.97,Sardigna/Sardegna
44311,GAGLIOLE,43.23,13.07,Marche
44324,MILANO ROMOLO RAILWAY STATION,45.44,9.17,Lombardia
44477,BROCCOSTELLA,41.7,13.63,Lazio
44491,ARZACHENA,41.08,9.38,Sardigna/Sardegna
44494,BATTUDA,45.27,9.08,Lombardia
44550,HERBÉTET,45.55,7.27,Valle d'Aosta / Vallée d'Aoste
44590,TORRE ANNUNZIATA,40.75,14.45,Campania
44718,ILMENSPITZE,46.48,10.96,Trentino-Alto Adige/Südtirol
44780,TESERO,46.28,11.52,Trentino-Alto Adige/Südtirol
44849,CAMPODIMELE,41.38,13.53,Lazio
44876,"TOMBOLO, VENETO",45.65,11.83,Veneto
44880,SPESSA,45.12,9.35,Lombardia
44888,"SANTISSIMO SALVATORE, PALERMO",38.11,13.36,Sicilia
44974,CUVEGLIO,45.9,8.73,Lombardia
45056,LAMPEDUSA E LINOSA,35.5,12.6,Sicilia
45101,MONTEPAONE,38.72,16.5,Calabria
45170,MONASTERACE-STILO RAILWAY STATION,38.44,16.57,Calabria
45231,CASALETTO VAPRIO,45.4,9.63,Lombardia
45242,AIGUILLE NOIRE DE PEUTEREY,45.81,6.89,Valle d'Aosta / Vallée d'Aoste
45256,SORDIO,45.34,9.37,Lombardia
45306,CONDOVE-CHIUSA SAN MICHELE RAILWAY STATION,45.11,7.32,Piemonte
45337,MONTAGNA DEI FIORI,42.76,13.6,Abruzzo
45361,CEREA RAILWAY STATION,45.2,11.22,Veneto
45437,JAZZIHORN,46.03,8.01,Piemonte
45532,ACQUARICA DEL CAPO,39.91,18.25,Puglia
45544,LAGONEGRO,40.13,15.77,Basilicata
45560,APPIANO GENTILE,45.73,8.97,Lombardia
45644,LEQUIO TANARO,44.57,7.88,Piemonte
45679,"DRO, TRENTINO",45.96,10.91,Trentino-Alto Adige/Südtirol
45691,"BAROLO, PIEDMONT",44.62,7.93,Piemonte
45697,"CASTELLANIA, PIEDMONT",44.78,8.92,Piemonte
45700,GIANO DELL'UMBRIA,42.83,12.58,Umbria
45725,GUSSOLA,45.02,10.35,Lombardia
45728,VALLEROTONDA,41.55,13.92,Lazio
45757,BORTIGIADAS,40.9,9.05,Sardigna/Sardegna
45792,PANICALE,43.03,12.1,Umbria
45837,"CHIESANUOVA, PIEDMONT",45.42,7.65,Piemonte
45897,SALASCO,45.33,8.27,Piemonte
45906,GORLA MINORE,45.63,8.9,Lombardia
45957,PUNTA CARENA LIGHTHOUSE,40.54,14.2,Campania
45981,CHIUSANO DI SAN DOMENICO,40.93,14.92,Campania
46025,ANCONETTA RAILWAY STATION,45.56,11.57,Veneto
46060,"PRAY, PIEDMONT",45.68,8.22,Piemonte
46201,CASALEGGIO BOIRO,44.62,8.72,Piemonte
46210,CONSELICE,44.33,11.7,Emilia-Romagna
46293,MOTTA BALUFFI,45.05,10.27,Lombardia
46343,PIC TYNDALL,45.97,7.65,Valle d'Aosta / Vallée d'Aoste
46440,PUTIGNANO,40.85,17.12,Puglia
46576,TORRI IN SABINA,42.35,12.63,Lazio
46608,ALTARE,44.34,8.36,Liguria
46640,SCOPPITO,42.37,13.86,Abruzzo
46677,"PERGOLA, MARCHE",43.57,12.83,Marche
46683,PIZZIGHETTONE,45.18,9.78,Lombardia
46736,SARNO,40.82,14.62,Campania
46841,FIESSO D'ARTICO,45.42,12.03,Veneto
46850,SOUTHERN LIMESTONE ALPS,46.51,10.54,Trentino-Alto Adige/Südtirol
46858,SERRA PEDACE,39.28,16.35,Calabria
46865,GAVORRANO,42.92,10.91,Toscana
46897,CASALGRANDE,44.58,10.73,Emilia-Romagna
46906,EPPAN AN DER WEINSTRASSE,46.45,11.27,Trentino-Alto Adige/Südtirol
46928,TERMOLI,42.0,14.98,Molise
46972,BERRA,44.98,11.97,Emilia-Romagna
46973,CAPO CACCIA LIGHTHOUSE,40.56,8.16,Sardigna/Sardegna
46979,CASTELNUOVO DI GARFAGNANA,44.12,10.41,Toscana
47063,RONCELLO,45.6,9.45,Lombardia
47065,BRUZOLO DI SUSA RAILWAY STATION,45.13,7.2,Piemonte
47099,CORTINA D'AMPEZZO,46.54,12.14,Veneto
47162,CUORGNÈ,45.38,7.65,Piemonte
47195,DRUOGNO,46.13,8.47,Piemonte
47223,PIANA DEGLI ALBANESI,37.99,13.28,Sicilia
47225,LENTATE SUL SEVESO,45.68,9.12,Lombardia
47308,VILLA SAN GIOVANNI RAILWAY STATION,38.22,15.63,Calabria
47348,SANTA LUCIA DI PIAVE,45.85,12.28,Veneto
47367,SALASSA,45.37,7.68,Piemonte
47372,NURECI,39.82,8.98,Sardigna/Sardegna
47464,CASCINETTE D'IVREA,45.48,7.9,Piemonte
47474,CASTIGLIONE DELLE STIVIERE,45.39,10.49,Lombardia
47476,LANCIANO RAILWAY STATION,42.23,14.4,Abruzzo
47496,CASTELLABATE,40.28,14.95,Campania
47504,SAN PIETRO DI CADORE,46.57,12.58,Veneto
47527,ACI BONACCORSI,37.6,15.12,Sicilia
47543,SAN MARTINO VALLE CAUDINA,41.02,14.66,Campania
47571,BRICHERASIO,44.83,7.3,Piemonte
47595,ASINARA,41.07,8.27,Sardigna/Sardegna
47677,CASALE SUL SILE,45.6,12.33,Veneto
47683,PRECENICCO,45.8,13.08,Friuli-Venezia Giulia
47829,TUFO,41.0,14.82,Campania
47860,ALESSANDRIA,44.92,8.62,Piemonte
47959,NEONELI,40.07,8.95,Sardigna/Sardegna
48066,MALOSCO,46.43,11.15,Trentino-Alto Adige/Südtirol
48098,CASARANO,40.02,18.17,Puglia
48105,ARADEO,40.13,18.13,Puglia
48179,MOSSANO,45.42,11.55,Veneto
48281,IMBERSAGO,45.7,9.45,Lombardia
48304,ALBESE CON CASSANO,45.8,9.17,Lombardia
48429,SEDRIANO,45.48,8.97,Lombardia
48433,MONTE MORO,46.0,7.97,Piemonte
48461,MIRABELLO SANNITICO,41.52,14.67,Molise
48487,"BOVA, CALABRIA",38.0,15.93,Calabria
48528,MONTANASO LOMBARDO,45.17,9.58,Lombardia
48717,PORTOGRUARO-CAORLE RAILWAY STATION,45.78,12.83,Veneto
48878,CASTELLO DEL MATESE,41.37,14.38,Campania
48879,ANNONE VENETO,45.8,12.68,Friuli-Venezia Giulia
48883,PATERNKOFEL,46.63,12.32,Trentino-Alto Adige/Südtirol
48886,FRANCAVILLA MARITTIMA,39.82,16.4,Calabria
48934,BARDONECCHIA,45.08,6.7,Piemonte
48961,SFRUZ,46.34,11.12,Trentino-Alto Adige/Südtirol
49032,SAN MARTINO IN STRADA,45.3,9.58,Lombardia
49152,FALMENTA,46.07,8.58,Piemonte
49178,"NICOSIA, SICILY",37.75,14.4,Sicilia
49195,VILLA RACHELE,45.55,9.22,Lombardia
49203,VALLEDOLMO,37.75,13.83,Sicilia
49235,PORTIGLIOLA,38.23,16.2,Calabria
49264,CASTELVETRO DI MODENA,44.5,10.95,Emilia-Romagna
49488,VITTORITO,42.13,13.82,Abruzzo
49565,CASARILE,45.32,9.1,Lombardia
49571,AGLIANA,43.9,11.0,Toscana
49578,RAVANUSA,37.27,13.97,Sicilia
49579,SCARMAGNO,45.38,7.83,Piemonte
49595,CUNICO,45.03,8.1,Piemonte
49644,WAIDBRUCK,46.6,11.53,Trentino-Alto Adige/Südtirol
49656,FRAGNETO MONFORTE,41.25,14.77,Campania
49687,RIPALTA GUERINA,45.3,9.7,Lombardia
49696,GUAZZORA,45.02,8.85,Piemonte
49706,FOSSACESIA,42.25,14.48,Abruzzo
49756,CARDANO AL CAMPO,45.67,8.73,Lombardia
49846,TAMBRE,46.13,12.42,Veneto
49933,ARNASCO,44.08,8.1,Liguria
49999,PALAZZO LANCIA,45.06,7.64,Piemonte
50010,PIZZO CARBONARA,37.89,14.03,Sicilia
50017,PARONA,45.28,8.75,Lombardia
50021,MONTE CECILIA,45.25,11.7,Veneto
50081,VITTORIO VENETO,45.98,12.3,Veneto
50216,SAN PIETRO IN CARIANO,45.52,10.88,Veneto
50243,CANOSSA,44.6,10.42,Emilia-Romagna
50267,CASTELVETRANO,37.68,12.79,Sicilia
50338,LISSONE-MUGGIÒ RAILWAY STATION,45.61,9.24,Lombardia
50349,ZUMAGLIA,45.55,8.1,Piemonte
50391,VITTORIA LIGHT,45.68,13.76,Friuli-Venezia Giulia
50418,SAN MARTINO D'AGRI,40.23,16.05,Basilicata
50434,SAN NICOLA BARONIA,41.05,15.18,Campania
50571,EMARÈSE,45.72,7.7,Valle d'Aosta / Vallée d'Aoste
50654,ROCCAGIOVINE,42.05,12.9,Lazio
50659,SERRAMEZZANA,40.25,15.02,Campania
50708,MONTE RONCALLA,44.56,9.47,Liguria
50723,CANOSIO,44.45,7.08,Piemonte
50742,ROMAGNANO SESIA,45.63,8.38,Piemonte
50772,GARLATE,45.8,9.4,Lombardia
50774,RICCIONE,44.0,12.65,Emilia-Romagna
50785,CASALETTO CEREDANO,45.32,9.62,Lombardia
50793,SPINETO SCRIVIA,44.83,8.87,Piemonte
50798,"CHIARI, LOMBARDY",45.53,9.93,Lombardia
50828,SAN GIORGIO IONICO,40.45,17.37,Puglia
50844,ARCIDOSSO,42.87,11.53,Toscana
50865,TERRALBA,39.72,8.63,Sardigna/Sardegna
50964,"TIANA, SARDINIA",40.07,9.15,Sardigna/Sardegna
51184,CASTAGNOLE DELLE LANZE,44.75,8.15,Piemonte
51303,SERRA SANT'ABBONDIO,43.48,12.77,Marche
51349,MILAN CATHEDRAL,45.46,9.19,Lombardia
51379,SAN PIETRO IN AMANTEA,39.13,16.12,Calabria
51387,MANDURIA,40.4,17.63,Puglia
51422,MONTE VERMENONE,43.13,12.92,Marche
51474,RONDANINA,44.57,9.22,Liguria
51525,LAGNASCO,44.63,7.55,Piemonte
51532,BESSANÈSE,45.18,7.07,Piemonte
51535,VALENZANO LAMIE RAILWAY STATION,41.03,16.88,Puglia
51551,BATHS OF CARACALLA,41.88,12.49,Lazio
51581,VALSINNI,40.17,16.45,Basilicata
51606,APECCHIO,43.57,12.42,Marche
51638,MOSCUFO,42.43,14.05,Abruzzo
51692,PETTORAZZA GRIMANI,45.13,12.05,Veneto
51702,WESTERN LYSKAMM,45.93,7.82,Valle d'Aosta / Vallée d'Aoste
51757,BIELLA,45.57,8.07,Piemonte
51769,LUISAGO,45.77,9.05,Lombardia
51774,ANNICCO,45.25,9.88,Lombardia
51806,"CASTELNUOVO, TRENTINO",46.05,11.48,Trentino-Alto Adige/Südtirol
51845,CALVELLO,40.48,15.85,Basilicata
51854,MARCIANA MARINA,42.8,10.2,Toscana
51867,TORGNON,45.8,7.57,Valle d'Aosta / Vallée d'Aoste
52019,BATTIPAGLIA RAILWAY STATION,40.61,14.98,Campania
52063,VIAREGGIO RAILWAY STATION,43.87,10.25,Toscana
52097,SATRIANO (CALABRIA),38.67,16.47,Calabria
52100,SINISCOLA,40.58,9.7,Sardigna/Sardegna
52125,VILLAFRANCA PIEMONTE,44.78,7.5,Piemonte
52156,"RESIA, FRIULI",46.38,13.3,Friuli-Venezia Giulia
52194,DERNICE,44.77,9.05,Piemonte
52266,BRUZZANO ZEFFIRIO,38.02,16.08,Calabria
52268,RODDINO,44.58,8.02,Piemonte
52295,PINETO,42.62,14.07,Abruzzo
52367,SANT'ANGELO LE FRATTE,40.55,15.56,Basilicata
52398,SAN MASSIMO,41.48,14.42,Molise
52470,TROMELLO,45.22,8.87,Lombardia
52658,BAREGGIO,45.47,8.98,Lombardia
52661,CASALECCHIO DI RENO,44.48,11.28,Emilia-Romagna
52673,CIMA DEI PRETI,46.34,12.42,Friuli-Venezia Giulia
52680,SAN GIOVANNI GEMINI,37.63,13.65,Sicilia
52740,TORINO STURA RAILWAY STATION,45.12,7.71,Piemonte
52747,VERRONE,45.5,8.12,Piemonte
52797,PETRALIA SOPRANA,37.8,14.1,Sicilia
52912,MONTE BUBBONIA,37.25,14.34,Sicilia
52923,CELLE DI BULGHERIA,40.1,15.4,Campania
52944,PONTE AMERIGO VESPUCCI,43.77,11.24,Toscana
52976,GERRE DE' CAPRIOLI,45.08,10.05,Lombardia
53005,BAGNOLO MELLA,45.43,10.18,Lombardia
53140,POZZILLI,41.51,14.06,Molise
53247,SAN VITTORINO,42.4,13.31,Abruzzo
53252,"SADALI, SARDINIA",39.82,9.27,Sardigna/Sardegna
53278,POLIA,38.75,16.32,Calabria
53324,SAN VITTORE DEL LAZIO,41.47,13.93,Lazio
53345,CASTELLUCCIO VALMAGGIORE,41.35,15.2,Puglia
53348,ALBAREDO ARNABOLDI,45.1,9.25,Lombardia
53388,POLLENA TROCCHIA,40.85,14.38,Campania
53495,CASARGO,46.05,9.38,Lombardia
53501,MONTE ZAPPI,43.06,12.81,Umbria
53508,POLLA,40.52,15.5,Campania
53558,STADIO OLINDO GALLI,41.95,12.84,Lazio
53587,SALERNO COSTA D'AMALFI AIRPORT,40.62,14.91,Campania
53591,MEDIOLANUM FORUM,45.4,9.14,Lombardia
53623,LAURIA,40.05,15.83,Basilicata
53631,OSTIGLIANO,40.31,15.14,Campania
53652,IRSINA,40.75,16.23,Basilicata
53792,PIEDIMONTE ETNEO,37.8,15.17,Sicilia
53794,CROCETTA DEL MONTELLO,45.83,12.03,Veneto
53804,BONAVIGO,45.25,11.28,Veneto
53842,TORRETTA,38.13,13.23,Sicilia
54008,AMEGLIA,44.07,9.95,Liguria
54065,PONTESTURA,45.14,8.33,Piemonte
54108,BRUZOLO,45.14,7.19,Piemonte
54120,BALESTRINO,44.12,8.17,Liguria
54123,CASTELLAVAZZO,46.28,12.3,Veneto
54158,RIVAROSSA,45.25,7.72,Piemonte
54164,GUARDISTALLO,43.32,10.63,Toscana
54197,SCANDOLARA RIPA D'OGLIO,45.22,10.15,Lombardia
54255,BUSSERO,45.53,9.37,Lombardia
54266,BUGGERRU,39.4,8.4,Sardigna/Sardegna
54290,NURAGHE FENU,39.61,8.74,Sardigna/Sardegna
54296,"RIVE, PIEDMONT",45.22,8.42,Piemonte
54423,BUSSETO,44.98,10.05,Emilia-Romagna
54582,VALVELSPITZE,46.77,10.67,Trentino-Alto Adige/Südtirol
54686,TARANTO-GROTTAGLIE AIRPORT,40.52,17.4,Puglia
54712,MONTE BICCO,42.92,13.19,Marche
54814,SESTO SAN GIOVANNI,45.53,9.23,Lombardia
54851,TORANO CASTELLO,39.5,16.15,Calabria
54947,TIONE DEGLI ABRUZZI,42.21,13.64,Abruzzo
54982,VIGO DI FASSA,46.42,11.67,Trentino-Alto Adige/Südtirol
55006,ROVOLON,45.35,11.67,Veneto
55021,BERGOLO,44.53,8.18,Piemonte
55049,GUARDIA PIEMONTESE,39.47,16.0,Calabria
55071,COPPARO,44.9,11.83,Emilia-Romagna
55083,GALLIPOLI RAILWAY STATION,40.06,17.99,Puglia
55141,OLLOLAI,40.17,9.18,Sardigna/Sardegna
55226,MONTE VOLTURINO,40.41,15.81,Basilicata
55321,"CANARO, ROVIGO",44.93,11.67,Veneto
55322,ALBARETO,44.45,9.7,Emilia-Romagna
55554,MONT BLANC DE COURMAYEUR,45.83,6.87,Valle d'Aosta / Vallée d'Aoste
55584,LESSONA,45.58,8.22,Piemonte
55612,PROVINCE OF BRESCIA,45.63,10.3,Lombardia
55615,SOLBIATE ARNO,45.72,8.82,Lombardia
55621,OROSEI,40.38,9.7,Sardigna/Sardegna
55635,SPORMINORE,46.23,11.03,Trentino-Alto Adige/Südtirol
55665,PADERNA,44.82,8.88,Piemonte
55822,ALBA RAILWAY STATION,44.7,8.03,Piemonte
55946,POLICORO,40.2,16.67,Basilicata
55977,MONTE LOZZO,45.3,11.62,Veneto
56055,GREEK THEATRE OF SYRACUSE,37.08,15.27,Sicilia
56090,LOREGLIA,45.88,8.45,Piemonte
56175,ROMAGNESE,44.83,9.33,Lombardia
56194,CASTEL SANT'ANGELO (LICATA),37.1,13.93,Sicilia
56207,SUNO,45.63,8.53,Piemonte
56215,AVEZZANO,42.04,13.44,Abruzzo
56325,ROSSIGLIONE,44.57,8.67,Liguria
56417,MUSCOLINE,45.57,10.47,Lombardia
56436,BORGO TOSSIGNANO,44.28,11.58,Emilia-Romagna
56571,SOSTEGNO,45.65,8.27,Piemonte
56607,LA SINGLA,45.95,7.47,Valle d'Aosta / Vallée d'Aoste
56712,POZZA DI FASSA,46.43,11.68,Trentino-Alto Adige/Südtirol
56717,VAJONT,46.13,12.68,Friuli-Venezia Giulia
56811,PIETRA LIGURE,44.15,8.3,Liguria
56816,CINETO ROMANO,42.05,12.97,Lazio
56885,OSIO SOPRA,45.63,9.58,Lombardia
56945,LESSOLO,45.48,7.82,Piemonte
56965,MONTE DI TREMEZZO,46.0,9.19,Lombardia
56981,PONTELATONE,41.2,14.25,Campania
57029,TERMINI IMERESE,37.99,13.7,Sicilia
57086,COLLINAS,39.63,8.85,Sardigna/Sardegna
57095,MEGARA HYBLAEA,37.2,15.18,Sicilia
57117,LOGRATO,45.48,10.05,Lombardia
57184,SERRENTI,39.5,8.97,Sardigna/Sardegna
57214,PORTOBUFFOLÉ,45.85,12.53,Veneto
57333,"MAZZARINO, SICILY",37.3,14.2,Sicilia
57448,CADEO,44.97,9.83,Emilia-Romagna
57475,CASASCO,44.83,9.0,Piemonte
57503,ORSOGNA,42.22,14.28,Abruzzo
57513,CANTO ALTO,45.77,9.67,Lombardia
57567,SCHLANDERS,46.63,10.77,Trentino-Alto Adige/Südtirol
57627,MALONNO,46.12,10.32,Lombardia
57635,SAN BENEDETTO BELBO,44.5,8.05,Piemonte
57661,SAN POTITO SANNITICO,41.33,14.4,Campania
57671,ROBURENT,44.32,7.88,Piemonte
57707,SAONARA,45.37,11.98,Veneto
57791,ANFO,45.77,10.49,Lombardia
57851,PESCHICI,41.95,16.01,Puglia
57866,VISANO,45.32,10.37,Lombardia
57868,COSTABISSARA,45.58,11.48,Veneto
57869,CITTADELLA (BARI) RAILWAY STATION,41.13,16.79,Puglia
57871,TEMPIO PAUSANIA,40.9,9.1,Sardigna/Sardegna
57923,CASATISMA,45.05,9.13,Lombardia
57938,MILANO PORTA VENEZIA RAILWAY STATION,45.48,9.21,Lombardia
57953,FIEROZZO,46.12,11.32,Trentino-Alto Adige/Südtirol
58014,SANTA SEVERINA,39.15,16.92,Calabria
58084,"CIRÒ, CALABRIA",39.38,17.06,Calabria
58114,TRINITAPOLI,41.35,16.1,Puglia
58116,MARTIGNANA DI PO,45.0,10.37,Lombardia
58160,SEMPRONIANO,42.72,11.53,Toscana
58193,ALBENGA,44.05,8.22,Liguria
58259,MONTJOVET,45.7,7.68,Valle d'Aosta / Vallée d'Aoste
58288,GRABSPITZE,46.94,11.61,Trentino-Alto Adige/Südtirol
58368,VALFENERA,44.9,7.97,Piemonte
58378,PARETE,40.97,14.17,Campania
58439,SPOTORNO,44.23,8.42,Liguria
58503,CASTELLO ESTENSE,44.84,11.62,Emilia-Romagna
58565,SAN DONATO MILANESE,45.42,9.27,Lombardia
58608,PALAMAGGIÒ,41.13,14.31,Campania
58613,RIFREDDO,44.65,7.35,Piemonte
58687,PROVINCE OF MASSA AND CARRARA,44.3,10.0,Toscana
58794,SORBO SERPICO,40.92,14.88,Campania
58844,MUSEO NAZIONALE DELLA VALCAMONICA,45.94,10.27,Lombardia
58932,PALAZZO DEL TE,45.15,10.79,Lombardia
58936,COLLEDIMACINE,42.0,14.2,Abruzzo
58946,TRIANTE,45.58,9.27,Lombardia
58989,SAN CESARIO DI LECCE,40.3,18.17,Puglia
59011,SASSO DI BOSCONERO,46.34,12.27,Veneto
59026,"SOLDANO, LIGURIA",43.83,7.65,Liguria
59035,MONTEZEMOLO,44.38,8.13,Piemonte
59073,CRISPIANO,40.6,17.23,Puglia
59085,SAN TOMASO AGORDINO,46.38,11.98,Veneto
59119,ATTIGLIANO,42.52,12.3,Umbria
59275,SAN FLORIANO DEL COLLIO,45.98,13.58,Friuli-Venezia Giulia
59279,RIO SALICETO,44.82,10.8,Emilia-Romagna
59322,SAN MARZANO OLIVETO,44.75,8.3,Piemonte
59343,PREPOTTO,46.05,13.48,Friuli-Venezia Giulia
59426,CASTELDELCI,43.78,12.15,Emilia-Romagna
59437,AGNOSINE,45.65,10.35,Lombardia
59479,POMBIA,45.65,8.63,Piemonte
59604,FABRIZIA,38.47,16.3,Calabria
59607,RUBIANA,45.13,7.38,Piemonte
59799,VELIA,40.16,15.16,Campania
59801,MONTE FREIDOUR,44.97,7.3,Piemonte
59823,VILLA BARTOLOMEA,45.15,11.35,Veneto
59909,VILLASTELLONE,44.92,7.75,Piemonte
59946,CASTELFRANCO DI SOTTO,43.7,10.75,Toscana
60024,LIONI,40.87,15.18,Campania
60159,ST. PANKRAZ,46.58,11.08,Trentino-Alto Adige/Südtirol
60162,PALERMO NOTARBARTOLO RAILWAY STATION,38.13,13.34,Sicilia
60165,LIGNANO SABBIADORO,45.68,13.12,Friuli-Venezia Giulia
60174,NAPOLI CENTRALE RAILWAY STATION,40.85,14.27,Campania
60195,MURIALDO,44.32,8.17,Liguria
60241,GORZEGNO,44.52,8.13,Piemonte
60278,MARAUSA,38.02,12.52,Sicilia
60303,VILLACIDRO,39.45,8.73,Sardigna/Sardegna
60306,SANT'ARSENIO,40.47,15.48,Campania
60314,GAMBARA,45.25,10.3,Lombardia
60343,COMO,45.82,9.08,Lombardia
60366,CASALETTO SPARTANO,40.15,15.62,Campania
60399,VILLAMAGGIORE RAILWAY STATION,45.32,9.19,Lombardia
60400,RUSCIO,42.65,12.95,Umbria
60444,BARI CENTRALE RAILWAY STATION,41.12,16.87,Puglia
60551,COSA,42.41,11.29,Toscana
60554,BEVERINO,44.2,9.78,Liguria
60565,"ARBUS, SARDINIA",39.53,8.6,Sardigna/Sardegna
60590,MOTTARONE,45.88,8.45,Piemonte
60597,BOSARO,45.0,11.77,Veneto
60645,TORREMAGGIORE,41.68,15.28,Puglia
60676,TESSENNANO,42.48,11.79,Lazio
60718,LAINO CASTELLO,39.94,15.98,Calabria
60820,LIRIO,45.0,9.25,Lombardia
60843,SANT'ALESSIO CON VIALONE,45.22,9.25,Lombardia
60847,GIOI,40.29,15.22,Campania
60853,OGLIASTRO MARINA,40.23,14.94,Campania
60883,CAMPOLATTARO,41.28,14.73,Campania
60887,CODRONGIANOS,40.67,8.68,Sardigna/Sardegna
60931,ANACAPRI,40.55,14.22,Campania
60941,"NETRO, PIEDMONT",45.53,7.93,Piemonte
60994,COAZZE,45.05,7.3,Piemonte
61007,ORSARA BORMIDA,44.69,8.56,Piemonte
61019,ZOLLINO RAILWAY STATION,40.2,18.24,Puglia
61024,MONTECORVINO PUGLIANO,40.68,14.95,Campania
61058,AVIGLIANA RAILWAY STATION,45.09,7.4,Piemonte
61110,BAGNOLO IN PIANO,44.77,10.68,Emilia-Romagna
61134,VILLA DEL BOSCO,45.63,8.32,Piemonte
61139,SAN PIETRO VIMINARIO,45.25,11.82,Veneto
61206,CONDOFURI,38.0,15.87,Calabria
61258,TORRE DEL GRAN SAN PIETRO,45.53,7.36,Valle d'Aosta / Vallée d'Aoste
61303,CALOPEZZATI,39.57,16.8,Calabria
61325,PEVERAGNO,44.33,7.62,Piemonte
61385,CONCAMARISE,45.2,11.13,Veneto
61413,CERRO MAGGIORE,45.6,8.95,Lombardia
61483,VISCHE,45.33,7.95,Piemonte
61599,CATIGNANO,42.35,13.95,Abruzzo
61605,MONTE CORNETTO,45.75,11.18,Veneto
61623,BARBERINO DI MUGELLO,44.0,11.23,Toscana
61690,BERCETO,44.51,9.99,Emilia-Romagna
61705,VALLE STURA DI DEMONTE,44.31,7.17,Piemonte
61710,NAZZANO,42.23,12.6,Lazio
61737,MONTELPARO,43.02,13.53,Marche
61750,PIETRAPAOLA,39.48,16.82,Calabria
61770,CASTELLAMMARE DI STABIA,40.7,14.48,Campania
61800,SAN LORENZELLO,41.27,14.55,Campania
61829,FALCADE,46.37,11.87,Veneto
61878,ROSCIGNO,40.4,15.35,Campania
61925,PILONE,46.22,8.53,Piemonte
61929,RANDAZZO,37.88,14.95,Sicilia
61977,MARMIROLO,45.22,10.75,Lombardia
61982,CARAVINO,45.4,7.97,Piemonte
62090,MARATEA,39.98,15.72,Basilicata
62098,MONTE NUOVO,40.84,14.09,Campania
62138,SAN GIACOMO VERCELLESE,45.5,8.33,Piemonte
62146,CAPO SCARAMIA LIGHTHOUSE,36.79,14.49,Sicilia
62156,ROTONDELLA,40.17,16.52,Basilicata
62220,CAMPITELLO DI FASSA,46.48,11.73,Trentino-Alto Adige/Südtirol
62284,ALTA MURGIA NATIONAL PARK,40.99,16.37,Puglia
62290,MONTEVECCHIA,45.7,9.38,Lombardia
62356,VILLNÖSS,46.65,11.68,Trentino-Alto Adige/Südtirol
62376,HOHSANDHORN,46.4,8.31,Piemonte
62421,MONTESE,44.27,10.95,Emilia-Romagna
62446,TRONZANO LAGO MAGGIORE,46.08,8.73,Lombardia
62498,SANLURI,39.57,8.9,Sardigna/Sardegna
62605,VILLANUOVA SUL CLISI,45.6,10.45,Lombardia
62703,VIGODARZERE,45.45,11.88,Veneto
62743,VARESE RAILWAY STATION,45.82,8.83,Lombardia
62792,POZZOL GROPPO,44.88,9.03,Piemonte
62866,ZOPPOLA,45.97,12.77,Friuli-Venezia Giulia
62899,MONTE ANTOLA,44.57,9.15,Liguria
62997,BREUIL-CERVINIA,45.93,7.63,Valle d'Aosta / Vallée d'Aoste
63054,CAMPOCHIARO,41.45,14.52,Molise
63062,CIMON DEL FROPPA,46.5,12.33,Veneto
63147,LONGOBUCCO,39.45,16.61,Calabria
63236,CALABRITTO,40.78,15.22,Campania
63257,PRATA DI PORDENONE,45.9,12.6,Friuli-Venezia Giulia
63283,ST. MARTIN IN PASSEIER,46.78,11.23,Trentino-Alto Adige/Südtirol
63306,CASTELLO DI BRIANZA,45.77,9.33,Lombardia
63308,GRISOLIA,39.72,15.85,Calabria
63322,VENASCA,44.57,7.4,Piemonte
63337,MONTENARS,46.25,13.18,Friuli-Venezia Giulia
63450,SASS DE MURA,46.16,11.93,Veneto
63467,"SANTI APOSTOLI, VENICE",45.44,12.34,Veneto
63502,CANTOIRA,45.35,7.38,Piemonte
63538,CERCINO,46.15,9.5,Lombardia
63651,CANISCHIO,45.37,7.6,Piemonte
63665,"PERO, LOMBARDY",45.52,9.08,Lombardia
63724,SPINETE,41.55,14.48,Molise
63773,PETTINEO,37.97,14.28,Sicilia
63786,CASTELBALDO,45.13,11.45,Veneto
63807,MONTE STREGA,43.45,12.78,Marche
63809,"CAMISANO, LOMBARDY",45.45,9.75,Lombardia
63846,PROVVIDENTI RAILWAY STATION,41.73,14.85,Molise
63873,GONNOSNÒ,39.77,8.87,Sardigna/Sardegna
63916,PEIO,46.37,10.67,Trentino-Alto Adige/Südtirol
64029,DONORI,39.43,9.12,Sardigna/Sardegna
64055,OSPITALE DI CADORE,46.33,12.32,Veneto
64119,"CASTELLAR, PIEDMONT",44.62,7.43,Piemonte
64127,MAGGIORA,45.68,8.43,Piemonte
64150,"SOGLIO, PIEDMONT",45.0,8.08,Piemonte
64228,CAMINI,38.43,16.48,Calabria
64272,SPINEDA,45.07,10.52,Lombardia
64368,CALCATA,42.22,12.42,Lazio
64380,CERRIONE,45.47,8.07,Piemonte
64483,CITTÀ DI CASTELLO,43.46,12.24,Umbria
64520,LEONFORTE,37.64,14.4,Sicilia
64551,BITONTO SANTI MEDICI RAILWAY STATION,41.12,16.7,Puglia
64624,TERTENIA,39.7,9.58,Sardigna/Sardegna
64648,CIGLIÈ,44.43,7.93,Piemonte
64650,CARONIA,38.02,14.43,Sicilia
64687,VOTTIGNASCO,44.57,7.58,Piemonte
64719,ROCCASICURA,41.7,14.23,Molise
64769,CASTELLANA GROTTE RAILWAY STATION,40.89,17.17,Puglia
64791,"VEZZANO, TRENTINO",46.08,10.97,Trentino-Alto Adige/Südtirol
64922,"TERNATE, LOMBARDY",45.78,8.7,Lombardia
64961,"VIRGILIO, LOMBARDY",45.12,10.78,Lombardia
64990,AMPEZZO,46.42,12.78,Friuli-Venezia Giulia
65033,CASTILENTI,42.53,13.92,Abruzzo
65094,GRUMO NEVANO,40.93,14.27,Campania
65137,LIMONE PIEMONTE,44.2,7.57,Piemonte
65150,CESSANITI,38.67,16.03,Calabria
65158,CERRETO GUIDI,43.77,10.88,Toscana
65213,SANT'AGATA FELTRIA,43.87,12.22,Emilia-Romagna
65232,ALTIVOLE,45.75,11.95,Veneto
65246,BLEGGIO SUPERIORE,46.02,10.83,Trentino-Alto Adige/Südtirol
65251,MONTIANO,44.08,12.3,Emilia-Romagna
65300,SANT'ANTONINO-VAIE RAILWAY STATION,45.11,7.27,Piemonte
65325,GAVARDO,45.59,10.44,Lombardia
65510,COLLOREDO DI MONTE ALBANO,46.17,13.13,Friuli-Venezia Giulia
65540,QUARANTI,44.75,8.45,Piemonte
65552,MONTE FAITO,40.65,14.51,Campania
65574,FRAZZANÒ,38.07,14.75,Sicilia
65596,PIANTEDO,46.13,9.42,Lombardia
65599,CASTELLO CABIAGLIO,45.89,8.76,Lombardia
65622,SANTA CATERINA DELLO IONIO,38.53,16.52,Calabria
65627,GINOSA RAILWAY STATION,40.43,16.89,Puglia
65703,MONTELEONE ROCCA DORIA,40.47,8.57,Sardigna/Sardegna
65717,TADASUNI,40.12,8.88,Sardigna/Sardegna
65741,MARTIRANO,39.08,16.25,Calabria
65753,GUALTIERI,44.9,10.63,Emilia-Romagna
65767,MONTE GORZANO,42.62,13.4,Abruzzo
65830,TRIBANO,45.22,11.83,Veneto
65833,TORBOLE CASAGLIA,45.52,10.12,Lombardia
65892,TOVO DI SANT'AGATA,46.25,10.25,Lombardia
65956,TRE CIME DI LAVAREDO,46.62,12.31,Veneto
66010,SANT'ANNA ARRESI,39.0,8.64,Sardigna/Sardegna
66023,FARA IN SABINA,42.22,12.73,Lazio
66027,VILLA BISCOSSI,45.08,8.78,Lombardia
66056,POLVERACCHIO,40.72,15.13,Campania
66078,CONFLENTI,39.07,16.28,Calabria
66106,AVERAU,46.5,12.04,Veneto
66137,FAENZA RAILWAY STATION,44.29,11.88,Emilia-Romagna
66178,ISASCA,44.58,7.38,Piemonte
66185,MARCETELLI,42.23,13.05,Lazio
66338,SAN BONIFACIO RAILWAY STATION,45.4,11.27,Veneto
66360,CASTELLO DI PUNTA PAGANA,44.34,9.23,Liguria
66361,LARCIANO,43.82,10.88,Toscana
66406,TRIORA,44.0,7.77,Liguria
66485,CUNARDO,45.93,8.8,Lombardia
66514,MASCIAGO PRIMO,45.92,8.78,Lombardia
66537,VOLTAGGIO,44.62,8.85,Piemonte
66555,CAVACURTA,45.2,9.72,Lombardia
66617,BARRALI,39.47,9.1,Sardigna/Sardegna
66659,LIGHTHOUSE OF GENOA,44.4,8.9,Liguria
66703,ORVINIO,42.13,12.93,Lazio
66749,SETTIMO VITTONE,45.55,7.83,Piemonte
66875,LETTERE,40.7,14.55,Campania
66900,MOROZZO,44.42,7.72,Piemonte
66921,APRICENA CITTÀ RAILWAY STATION,41.78,15.45,Puglia
67003,MONTEGROSSO D'ASTI,44.83,8.25,Piemonte
67011,CAVALLERMAGGIORE,44.72,7.68,Piemonte
67046,COZZO,45.2,8.62,Lombardia
67080,VALSAVARENCHE,45.59,7.21,Valle d'Aosta / Vallée d'Aoste
67180,CALCINAIA,43.68,10.62,Toscana
67228,CIVITELLA PAGANICO,43.0,11.28,Toscana
67287,DISO,40.02,18.4,Puglia
67342,ANGERA,45.77,8.58,Lombardia
67412,PALINURO,40.03,15.28,Campania
67455,CARPENEDOLO,45.37,10.43,Lombardia
67489,SETTEFRATI,41.67,13.85,Lazio
67523,SANTA MARIA DEL PRIORATO CHURCH,41.88,12.48,Lazio
67600,VIGONZA,45.45,11.98,Veneto
67755,PESCOSANSONESCO,42.25,13.88,Abruzzo
67763,ORIO AL SERIO INTERNATIONAL AIRPORT,45.67,9.7,Lombardia
67779,ROCCAROMANA,41.27,14.22,Campania
67818,FOMBIO,45.15,9.7,Lombardia
67858,CORTEOLONA,45.15,9.37,Lombardia
67876,GATTICO,45.72,8.52,Piemonte
67883,TRAREGO VIGGIONA,46.07,8.58,Piemonte
67915,POTENZA CENTRALE RAILWAY STATION,40.63,15.81,Basilicata
67999,FIASTRA,43.03,13.15,Marche
68019,"BENTIVOGLIO, EMILIA-ROMAGNA",44.63,11.42,Emilia-Romagna
68106,FENEGRÒ,45.7,9.0,Lombardia
68171,ROCCHETTA DI VARA,44.2,9.78,Liguria
68208,SAN GIOVANNI LUPATOTO,45.38,11.03,Veneto
68290,SAN DEMETRIO CORONE,39.57,16.37,Calabria
68306,MONLEALE,44.88,8.97,Piemonte
68346,GERENZAGO,45.2,9.37,Lombardia
68379,STRONA DI MOSSO VALLEY,45.37,8.9,Lombardia
68434,LATISANA,45.78,13.12,Friuli-Venezia Giulia
68550,CAGNÒ,46.39,11.04,Trentino-Alto Adige/Südtirol
68583,QUINZANO D'OGLIO,45.32,9.98,Lombardia
68839,TORRIONI,41.03,14.82,Campania
68859,GATTINARA,45.62,8.37,Piemonte
68900,CALCINATO,45.45,10.42,Lombardia
68920,MURISENGO,45.08,8.13,Piemonte
68994,CAGNO,45.82,8.92,Lombardia
68997,BORGOMARO,43.98,7.95,Liguria
69135,SAPPADA,46.57,12.68,Friuli-Venezia Giulia
69173,EDOLO,46.18,10.33,Lombardia
69221,GERENZANO,45.63,9.0,Lombardia
69237,GREZZAGO,45.58,9.48,Lombardia
69244,CAGLI,43.55,12.65,Marche
69248,APOLLOSA,41.1,14.7,Campania
69256,STAITI,38.0,16.03,Calabria
69269,ACQUANEGRA CREMONESE,45.17,9.88,Lombardia
69282,CALVI DELL'UMBRIA,42.4,12.57,Umbria
69382,"MONCENISIO, PIEDMONT",45.2,6.98,Piemonte
69431,POPPI,43.72,11.77,Toscana
69488,MARSICOVETERE,40.37,15.83,Basilicata
69610,ROCCA SAN GIOVANNI,42.25,14.47,Abruzzo
69621,ELMAS,39.27,9.05,Sardigna/Sardegna
69638,BONVICINO,44.5,8.02,Piemonte
69648,SEQUALS,46.17,12.83,Friuli-Venezia Giulia
69664,JAKOBSSPITZE,46.76,11.49,Trentino-Alto Adige/Südtirol
69730,MARINA DI GIOIOSA IONICA,38.3,16.33,Calabria
69770,GREZZANA,45.52,11.02,Veneto
69772,BORGOMALE,44.62,8.13,Piemonte
69774,SETTIMO TORINESE,45.13,7.77,Piemonte
69819,SALUSSOLA RAILWAY STATION,45.44,8.11,Piemonte
69854,MONTECHINO,44.8,9.69,Emilia-Romagna
69870,PLODIO,44.35,8.25,Liguria
69918,EXILLES,45.1,6.93,Piemonte
69969,TORRE SANTA SUSANNA,40.47,17.73,Puglia
69977,CERGNAGO,45.2,8.77,Lombardia
70019,VILLATA,45.38,8.43,Piemonte
70046,VIGGIANO,40.33,15.9,Basilicata
70066,"BEMA, LOMBARDY",46.12,9.57,Lombardia
70113,PONSO,45.2,11.58,Veneto
70157,ARRONE,42.57,12.77,Umbria
70164,CATANZARO,38.9,16.6,Calabria
70226,CERTOSA DI PAVIA RAILWAY STATION,45.26,9.1,Lombardia
70295,PONNA,45.98,9.1,Lombardia
70334,APRICALE,43.88,7.67,Liguria
70475,RAPAGNANO,43.17,13.6,Marche
70614,COLLIANO,40.73,15.28,Campania
70634,FONTANA PRETORIA,38.12,13.36,Sicilia
70649,TAVIGLIANO,45.62,8.05,Piemonte
70664,ZOVENCEDO,45.43,11.5,Veneto
70807,CERANO D'INTELVI,45.95,9.08,Lombardia
70849,"MIRANDA, MOLISE",41.65,14.25,Molise
70855,CONTESSA ENTELLINA,37.73,13.18,Sicilia
70892,TREVINANO,42.82,11.87,Lazio
70935,COLLI A VOLTURNO,41.6,14.1,Molise
71014,MUSSOMELI,37.58,13.75,Sicilia
71075,MONTAZZOLI,41.95,14.43,Abruzzo
71188,OPPIDO MAMERTINA,38.3,15.98,Calabria
71250,VERBICARO,39.75,15.92,Calabria
71276,VEGGIANO,45.45,11.72,Veneto
71278,MONTE DELLE FIGNE,44.56,8.84,Liguria
71299,OYACE,45.85,7.38,Valle d'Aosta / Vallée d'Aoste
71318,SAN MICHELE MONDOVÌ,44.38,7.9,Piemonte
71338,SAN DAMIANO (BRUGHERIO),45.57,9.3,Lombardia
71485,VOLTAGO AGORDINO,46.27,12.03,Veneto
71544,PESCOPENNATARO,41.88,14.3,Molise
71549,NOCIGLIA,40.03,18.33,Puglia
71551,VILLAGA,45.4,11.53,Veneto
71827,"MUSSO, LOMBARDY",46.11,9.28,Lombardia
71839,ROMANO RAILWAY STATION,45.52,9.76,Lombardia
71956,BUSSOLENO,45.13,7.15,Piemonte
72005,SAN GREGORIO MATESE,41.38,14.37,Campania
72070,CASCATA DEL SERPENTE,44.5,8.7,Liguria
72155,PRESEGLIE,45.67,10.4,Lombardia
72178,SAN DONATO MILANESE RAILWAY STATION,45.42,9.25,Lombardia
72180,GUASILA,39.57,9.05,Sardigna/Sardegna
72277,SAN PIETRO AL NATISONE,46.13,13.48,Friuli-Venezia Giulia
72318,NAXOS (SICILY),37.82,15.27,Sicilia
72355,ARMO,44.08,7.92,Liguria
72415,MASSIGNANO,43.05,13.8,Marche
72428,PRAROSTINO,44.87,7.27,Piemonte
72436,CERANOVA,45.27,9.23,Lombardia
72446,BRACCIANO,42.1,12.18,Lazio
72462,CIMA DEL REDENTORE (SIBILLINI MOUNTAINS),42.85,13.23,Umbria
72467,SANT'OMERO,42.77,13.8,Abruzzo
72607,LAZISE,45.52,10.73,Veneto
72608,CUMIANA,44.98,7.37,Piemonte
72632,"ROLO, EMILIA-ROMAGNA",44.88,10.85,Emilia-Romagna
72660,ANDORNO MICCA,45.6,8.05,Piemonte
72761,MASSIMINO,44.3,8.07,Liguria
72777,CORSIONE,45.0,8.15,Piemonte
72785,CAMERI,45.5,8.65,Piemonte
72789,PIEA,45.03,8.07,Piemonte
72810,ORTA NOVA,41.33,15.71,Puglia
72823,UMBRIATICO,39.35,16.9,Calabria
72862,VALGRISENCHE,45.63,7.06,Valle d'Aosta / Vallée d'Aoste
72929,CAROSINO,40.47,17.4,Puglia
72932,SPINETOLI,42.88,13.77,Marche
72936,ALÌ TERME,38.0,15.42,Sicilia
73068,OTRANTO,40.15,18.48,Puglia
73069,SOVERIA SIMERI,38.95,16.68,Calabria
73097,RÖTSPITZE,47.03,12.2,Trentino-Alto Adige/Südtirol
73139,CROCEFIESCHI,44.58,9.02,Liguria
73239,COLFELICE,41.55,13.6,Lazio
73261,OFENHORN,46.39,8.32,Piemonte
73263,TORRITA DI SIENA,43.17,11.77,Toscana
73310,"MARTELL, SOUTH TYROL",46.55,10.78,Trentino-Alto Adige/Südtirol
73320,BISTAGNO,44.67,8.37,Piemonte
73335,MONASTERO DI VASCO,44.33,7.82,Piemonte
73455,CAMPANILE BASSO,46.15,10.9,Trentino-Alto Adige/Südtirol
73481,PARELLA,45.43,7.78,Piemonte
73563,CRISPIANO RAILWAY STATION,40.6,17.24,Puglia
73678,CASTIGLIONE DELLA PESCAIA,42.75,10.87,Toscana
73749,SAN POLO DI PIAVE,45.78,12.4,Veneto
73814,SONDALO,46.33,10.33,Lombardia
73927,ARENE CANDIDE,44.16,8.33,Liguria
73946,CIARFORON,45.49,7.25,Valle d'Aosta / Vallée d'Aoste
73947,TAPOGLIANO,45.88,13.4,Friuli-Venezia Giulia
73978,CASALI DEL MANCO,39.29,16.34,Calabria
74025,"VILLALBA, SICILY",37.65,13.83,Sicilia
74088,LAPPANO,39.32,16.32,Calabria
74143,INDUNO OLONA,45.85,8.83,Lombardia
74163,CENTO,44.73,11.28,Emilia-Romagna
74208,SAN FELICE A CANCELLO,41.02,14.48,Campania
74235,MONTECASTRILLI,42.65,12.48,Umbria
74271,MONTE GRAMMONDO,43.84,7.51,Liguria
74294,TERDOBBIATE,45.38,8.7,Piemonte
74316,VALPERGA,45.37,7.65,Piemonte
74322,HOCHGALL,46.91,12.14,Trentino-Alto Adige/Südtirol
74368,CONTIGLIANO,42.42,12.77,Lazio
74413,CASELLE TORINESE,45.18,7.65,Piemonte
74418,BARBIANELLO,45.07,9.2,Lombardia
74423,SERSALE,39.02,16.73,Calabria
74494,GERACI SICULO,37.87,14.15,Sicilia
74525,CINGOLI,43.37,13.22,Marche
74537,FATEBENEFRATELLI HOSPITAL,41.89,12.48,Lazio
74680,MONTELEONE DI PUGLIA,41.17,15.27,Puglia
74716,CROSIO DELLA VALLE,45.78,8.8,Lombardia
74746,FORMIGINE,44.61,10.93,Emilia-Romagna
74830,ALSENO,44.9,9.97,Emilia-Romagna
74902,"MALÉ, ITALY",46.35,10.9,Trentino-Alto Adige/Südtirol
74952,BRENTA GROUP,46.16,10.87,Trentino-Alto Adige/Südtirol
74953,REGGIO CALABRIA,38.11,15.66,Calabria
74976,CAVAGLIO D'AGOGNA,45.62,8.48,Piemonte
75035,INVORIO,45.75,8.48,Piemonte
75095,LISIO,44.3,7.98,Piemonte
75132,CAVA DE' TIRRENI,40.7,14.7,Campania
75228,ROCCA SINIBALDA,42.27,12.93,Lazio
75233,FORANO,42.3,12.6,Lazio
75234,"ARCE, LAZIO",41.58,13.57,Lazio
75396,PERTUSIO,45.35,7.63,Piemonte
75476,VODO DI CADORE,46.42,12.25,Veneto
75492,MOUNT ADAMELLO,46.16,10.5,Lombardia
75500,CINTO CAOMAGGIORE,45.83,12.78,Veneto
75505,CAMPI SALENTINA RAILWAY STATION,40.39,18.01,Puglia
75531,SOLONGHELLO,45.13,8.28,Piemonte
75619,PIZZO SAN MICHELE,40.8,14.84,Campania
75707,UCRIA,38.05,14.88,Sicilia
75743,"SANTA MARIA DELLA PIETÀ, PALERMO",38.12,13.37,Sicilia
75760,TORRAZZA COSTE,44.98,9.07,Lombardia
75803,"GORGA, LAZIO",41.65,13.12,Lazio
75867,SEPPIANA,46.07,8.23,Piemonte
75943,FUMANE,45.55,10.88,Veneto
75962,BELPASSO,37.58,14.98,Sicilia
76078,BOFFALORA D'ADDA,45.35,9.48,Lombardia
76091,DANTA DI CADORE,46.57,12.52,Veneto
76125,ROBBIATE,45.68,9.43,Lombardia
76135,MONTE MONARCO,45.86,8.84,Lombardia
76137,MONT AVIC,45.69,7.56,Valle d'Aosta / Vallée d'Aoste
76158,DEROVERE,45.12,10.25,Lombardia
76180,IGLIANO,44.45,8.02,Piemonte
76250,BAISO,44.5,10.6,Emilia-Romagna
76269,CASTELLAR GUIDOBONO,44.9,8.93,Piemonte
76350,CAIRO MONTENOTTE,44.4,8.27,Liguria
76377,MEDMA,38.49,15.98,Calabria
76405,AVIGLIANA,45.08,7.4,Piemonte
76419,BAIRO,45.38,7.75,Piemonte
76425,FRANZENSFESTE,46.78,11.62,Trentino-Alto Adige/Südtirol
76453,MORRONE DEL SANNIO,41.72,14.78,Molise
76474,AVIGLIANO,40.73,15.72,Basilicata
76566,MONTE META,41.69,13.94,Abruzzo
76647,SAN GIUSEPPE DEI TEATINI,38.12,13.36,Sicilia
76700,PINAROLO PO,45.07,9.2,Lombardia
76731,SIGILLO,43.33,12.74,Umbria
76733,CASTIGLION FIORENTINO,43.34,11.92,Toscana
76737,OLIVETO LUCANO,40.53,16.18,Basilicata
76755,CASTELLO DI CISTERNA,40.92,14.42,Campania
76912,SPINO D'ADDA,45.4,9.5,Lombardia
76989,ROTTOFRENO,45.05,9.55,Emilia-Romagna
77107,PREGNANA MILANESE RAILWAY STATION,45.51,9.0,Lombardia
77118,BORGHETTO DI VARA,44.22,9.72,Liguria
77154,MEZZOLOMBARDO,46.22,11.1,Trentino-Alto Adige/Südtirol
77158,TREMESTIERI ETNEO,37.58,15.08,Sicilia
77195,BARDINETO,44.18,8.13,Liguria
77210,"CHURCH OF SAN SALVATORE, CAMPI",42.85,13.09,Umbria
77240,CIVITELLA ROVETO,41.92,13.43,Abruzzo
77250,SALZA DI PINEROLO,44.93,7.05,Piemonte
77317,BUTTIGLIERA ALTA,45.07,7.42,Piemonte
77336,GARDONE RIVIERA,45.62,10.57,Lombardia
77525,CAMPAGNANO DI ROMA,42.13,12.38,Lazio
77561,POZZOMAGGIORE,40.4,8.67,Sardigna/Sardegna
77565,TAVOLETO,43.85,12.6,Marche
77577,"BARGE, PIEDMONT",44.73,7.32,Piemonte
77616,BAIAE,40.82,14.07,Campania
77670,PALAZZO BRERA,45.47,9.19,Lombardia
77715,MONTE SAN GIOVANNI IN SABINA,42.33,12.78,Lazio
77727,BORGO MISTO,45.55,9.22,Lombardia
77746,OLBIA,40.92,9.5,Sardigna/Sardegna
77779,ANDEZENO,45.03,7.87,Piemonte
77894,ROVERETO RAILWAY STATION,45.89,11.03,Trentino-Alto Adige/Südtirol
77953,MATRICE,41.62,14.72,Molise
77955,SANSEPOLCRO,43.57,12.14,Toscana
78076,SOLIGNANO,44.62,9.98,Emilia-Romagna
78088,KESSELKOGEL,46.47,11.64,Trentino-Alto Adige/Südtirol
78100,PONTE DI PIAVE,45.72,12.47,Veneto
78142,CASLINO D'ERBA,45.83,9.23,Lombardia
78144,MOLINO DEI TORTI,45.02,8.88,Piemonte
78313,"MUZZANO, PIEDMONT",45.55,7.98,Piemonte
78323,MONTE LESIMA,44.68,9.26,Emilia-Romagna
78351,MONTE CAMICIA,42.43,13.72,Abruzzo
78352,CAMPO SAN MARTINO,45.55,11.82,Veneto
78388,CORTAZZONE,44.98,8.07,Piemonte
78466,VÒ,45.33,11.63,Veneto
78501,VISCIANO,40.92,14.58,Campania
78558,SAN GIOVANNI LA PUNTA,37.58,15.1,Sicilia
78627,GRONTARDO,45.2,10.15,Lombardia
78780,GROSIO,46.3,10.28,Lombardia
78905,ONIFAI,40.03,9.05,Sardigna/Sardegna
78954,MOGLIANO,43.18,13.48,Marche
78975,CHIARI RAILWAY STATION,45.54,9.93,Lombardia
79049,GIACCIANO CON BARUCHELLA,45.07,11.45,Veneto
79069,MUSILE DI PIAVE,45.62,12.57,Veneto
79130,BARLASSINA,45.65,9.13,Lombardia
79170,SELLA GIUDICARIE,45.98,10.67,Trentino-Alto Adige/Südtirol
79221,MONTEMARCELLO,44.05,9.97,Liguria
79313,LENKSTEIN,46.94,12.17,Trentino-Alto Adige/Südtirol
79364,SAN GIOVANNI DEGLI EREMITI,38.11,13.35,Sicilia
79420,"LUNI, ITALY",44.08,10.04,Liguria
79428,PIZES DE CIR,46.56,11.8,Trentino-Alto Adige/Südtirol
79519,AMANDOLA,42.98,13.35,Marche
79554,SAN MARTINO BUON ALBERGO RAILWAY STATION,45.42,11.09,Veneto
79586,MUSEO ARCHEOLOGICO FRANCESCO SAVINI,42.66,13.7,Abruzzo
79632,LOIRI PORTO SAN PAOLO,40.85,9.5,Sardigna/Sardegna
79635,TIGGIANO,39.9,18.37,Puglia
79800,CORNI DI CANZO,45.86,9.33,Lombardia
79813,"LANA, SOUTH TYROL",46.62,11.15,Trentino-Alto Adige/Südtirol
79877,MONTE NUDO,45.92,8.69,Lombardia
79924,LUCCA RAILWAY STATION,43.84,10.51,Toscana
80000,VOLPEGLINO,44.88,8.95,Piemonte
80021,CASSANO D'ADDA,45.53,9.52,Lombardia
80022,ISTRANA,45.68,12.1,Veneto
80026,CIRIGLIANO,40.4,16.17,Basilicata
80030,MONTENERO VAL COCCHIARA,41.72,14.07,Molise
80109,BARI LA FITTA RAILWAY STATION,41.06,16.87,Puglia
80125,FOIANO DI VAL FORTORE,41.35,14.98,Campania
80177,OSPEDALE RAILWAY STATION,41.12,16.78,Puglia
80296,VIGASIO,45.32,10.93,Veneto
80307,PIANFEI,44.37,7.7,Piemonte
80316,VILLANOVA D'ARDENGHI,45.17,9.03,Lombardia
80333,VELODROMO PAOLO BORSELLINO,38.17,13.31,Sicilia
80375,ROSORA,43.48,13.07,Marche
80380,AOSTA VALLEY AIRPORT,45.74,7.37,Valle d'Aosta / Vallée d'Aoste
80396,CORTEMILIA,44.58,8.2,Piemonte
80412,GROSSO,45.27,7.57,Piemonte
80548,CUNEO INTERNATIONAL AIRPORT,44.55,7.62,Piemonte
80558,ORMEA,44.15,7.92,Piemonte
80627,VIGO RENDENA,46.08,10.72,Trentino-Alto Adige/Südtirol
80694,CADORAGO,45.72,9.03,Lombardia
80711,PEDEMONTE,45.92,11.32,Trentino-Alto Adige/Südtirol
80715,CASSINA RIZZARDI,45.75,9.03,Lombardia
80727,BARBANIA,45.3,7.63,Piemonte
80728,OLANG,46.77,12.03,Trentino-Alto Adige/Südtirol
80743,POGGIO BERNI,44.03,12.42,Emilia-Romagna
80855,LIGORNETTO,45.87,8.93,Lombardia
80939,FRIGENTO,41.01,15.1,Campania
80947,CARDEDU,39.8,9.63,Sardigna/Sardegna
80949,SEGRATE,45.48,9.3,Lombardia
81004,DOLOMITI BELLUNESI NATIONAL PARK,46.3,12.07,Veneto
81143,RUBIERA,44.65,10.78,Emilia-Romagna
81146,CASTELNUOVO DI VAL DI CECINA,43.22,10.9,Toscana
81206,MONTEU ROERO,44.78,7.94,Piemonte
81313,RONCOFREDDO,44.03,12.32,Emilia-Romagna
81332,MURELLO,44.75,7.6,Piemonte
81385,MIRABELLA ECLANO,41.05,15.0,Campania
81399,SAN GIOVANNI IN FIORE,39.27,16.7,Calabria
81445,TORREBELVICINO,45.72,11.32,Veneto
81518,GIOVINAZZO,41.18,16.67,Puglia
81538,MONTE CAMINO,45.64,7.94,Valle d'Aosta / Vallée d'Aoste
81583,CARUGATE,45.55,9.33,Lombardia
81653,MILETO RAILWAY STATION,38.58,16.06,Calabria
81687,SAN GIORGIO DELLE PERTICHE,45.53,11.92,Veneto
81724,FRACONALTO,44.58,8.87,Piemonte
81900,MASERÀ DI PADOVA,45.32,11.87,Veneto
81945,CASTIGLIONCELLO,43.41,10.41,Toscana
81951,DONNAS,45.6,7.77,Valle d'Aosta / Vallée d'Aoste
81999,SANTO STEFANO DEL SOLE,40.9,14.87,Campania
82018,MONTE STIVO,45.92,10.96,Trentino-Alto Adige/Südtirol
82196,MARIANA MANTOVANA,45.2,10.48,Lombardia
82310,PETRONÀ,39.03,16.75,Calabria
82492,MANDELLO VITTA,45.5,8.47,Piemonte
82585,DOMODOSSOLA RAILWAY STATION,46.12,8.3,Piemonte
82609,FELETTO,45.3,7.75,Piemonte
82632,CAPRIANA,46.27,11.33,Trentino-Alto Adige/Südtirol
82643,MONTE ARMETTA,44.16,8.02,Liguria
82782,PISTOIA RAILWAY STATION,43.93,10.91,Toscana
82870,PUNTA STILO LIGHTHOUSE,38.45,16.58,Calabria
82941,GABII,41.89,12.72,Lazio
82985,PENNADOMO,42.0,14.32,Abruzzo
83077,PUNTA SOTTILE LIGHTHOUSE,37.94,12.27,Sicilia
83132,"SAN DOMENICO, PALERMO",38.12,13.36,Sicilia
83159,ROCCAVALDINA,38.18,15.37,Sicilia
83265,SALERANO CANAVESE,45.47,7.85,Piemonte
83291,LOMBRIASCO,44.85,7.63,Piemonte
83351,"LAAS, SOUTH TYROL",46.62,10.7,Trentino-Alto Adige/Südtirol
83452,MARMOLADA,46.43,11.85,Trentino-Alto Adige/Südtirol
83526,CASSINA VALSASSINA,45.93,9.47,Lombardia
83540,AVERSA RAILWAY STATION,40.97,14.22,Campania
83621,ALDROVANDI VILLA BORGHESE,41.92,12.48,Lazio
83627,CALDONAZZO,46.0,11.27,Trentino-Alto Adige/Südtirol
83654,MÖLTEN,46.58,11.25,Trentino-Alto Adige/Südtirol
83705,MOIANO,41.08,14.55,Campania
83780,MIGLIANICO,42.36,14.29,Abruzzo
83844,FRASCINETO,39.83,16.27,Calabria
83869,CUSANO MUTRI,41.35,14.5,Campania
83880,HERACLEA LUCANIA,40.22,16.67,Basilicata
83884,MELAZZO,44.63,8.42,Piemonte
83953,CASTIGLIONE DI SICILIA,37.88,15.12,Sicilia
84066,TORVISCOSA,45.82,13.28,Friuli-Venezia Giulia
84104,THURII,39.72,16.5,Calabria
84108,CASTELLAZZO BORMIDA,44.83,8.57,Piemonte
84109,SAN COLOMBANO BELMONTE,45.38,7.62,Piemonte
84144,CAPO DELL'ARMA LIGHTHOUSE,43.82,7.83,Liguria
84190,CAPO DI MILAZZO,38.27,15.23,Sicilia
84216,APOLLO AND DAPHNE (BERNINI),41.91,12.49,Lazio
84219,TRAVEDONA-MONATE,45.8,8.67,Lombardia
84220,CAMPAGNA,40.67,15.1,Campania
84285,CONZA DELLA CAMPANIA,40.87,15.33,Campania
84327,MONTENERO SABINO,42.28,12.82,Lazio
84355,ROCCA SAN FELICE,40.95,15.17,Campania
84360,PICERNO,40.63,15.63,Basilicata
84383,TRIESTE,45.63,13.8,Friuli-Venezia Giulia
84525,OSILO,40.73,8.67,Sardigna/Sardegna
84549,ALBURNI,40.55,15.32,Campania
84566,TRAUSELLA,45.48,7.77,Piemonte
84597,MERCATO SAN SEVERINO,40.78,14.75,Campania
84674,OSIMO,43.48,13.48,Marche
84723,OSINI,39.82,9.5,Sardigna/Sardegna
84847,CARAFFA DI CATANZARO,38.88,16.49,Calabria
84885,CASTELSARACENO,40.17,15.98,Basilicata
84922,GIARRATANA,37.05,14.8,Sicilia
85031,CIVITELLA D'AGLIANO,42.6,12.18,Lazio
85033,LOREGGIA,45.6,11.95,Veneto
85071,TROGKOFEL,46.57,13.22,Friuli-Venezia Giulia
85101,SOSSANO,45.37,11.52,Veneto
85142,DINAMI,38.53,16.15,Calabria
85219,NOALE,45.55,12.07,Veneto
85297,PAOLA RAILWAY STATION,39.36,16.03,Calabria
85306,MONTE BONDONE,45.99,11.03,Trentino-Alto Adige/Südtirol
85336,CAINO,45.62,10.32,Lombardia
85339,MONCALVO,45.05,8.27,Piemonte
85370,VALLE DI MADDALONI,41.08,14.42,Campania
85436,VILLADEATI,45.07,8.17,Piemonte
85543,RAGOGNA,46.18,12.98,Friuli-Venezia Giulia
85690,GIAGLIONE,45.13,7.0,Piemonte
85755,POGGIARDO,40.05,18.38,Puglia
85780,MEZZOCORONA,46.22,11.12,Trentino-Alto Adige/Südtirol
85801,MORRO REATINO,42.53,12.83,Lazio
85807,ASSO,45.87,9.27,Lombardia
85828,ORTE RAILWAY STATION,42.44,12.41,Lazio
85954,ASTI,44.9,8.21,Piemonte
86067,TEANA,40.13,16.15,Basilicata
86080,CALTAGIRONE,37.24,14.51,Sicilia
86098,AVELLA,40.96,14.6,Campania
86109,ROSARNO RAILWAY STATION,38.49,15.97,Calabria
86121,ROCCIA NERA,45.93,7.78,Valle d'Aosta / Vallée d'Aoste
86125,MONTECCHIO PRECALCINO,45.67,11.57,Veneto
86127,MORSANO AL TAGLIAMENTO,45.92,12.95,Friuli-Venezia Giulia
86140,TEANO,41.25,14.07,Campania
86169,LAMA MOCOGNO,44.3,10.73,Emilia-Romagna
86186,RODENECK,46.78,11.68,Trentino-Alto Adige/Südtirol
86287,MASI TORELLO,44.8,11.8,Emilia-Romagna
86457,GABBIONETA-BINANUOVA,45.22,10.22,Lombardia
86476,PIACENZA RAILWAY STATION,45.05,9.71,Emilia-Romagna
86487,MONTERIGGIONI,43.39,11.22,Toscana
86503,SCORZÈ,45.57,12.11,Veneto
86555,GIMIGLIANO,38.97,16.53,Calabria
86566,BOLANO,44.18,9.9,Liguria
86575,STORNARELLA,41.25,15.73,Puglia
86592,GARBAGNATE MONASTERO,45.77,9.3,Lombardia
86606,VALMOREA,45.82,8.93,Lombardia
86629,TERRANOVA SAPPO MINULIO,38.32,16.0,Calabria
86635,CARINOLA,41.18,13.98,Campania
86681,PONTECCHIO POLESINE,45.02,11.82,Veneto
86694,GLOCKENKARKOPF,47.09,12.18,Trentino-Alto Adige/Südtirol
86728,VARMO,45.88,12.98,Friuli-Venezia Giulia
86730,GRAND GOLLIAT,45.86,7.1,Valle d'Aosta / Vallée d'Aoste
86750,BUSTO ARSIZIO RAILWAY STATION,45.62,8.86,Lombardia
86752,"SANT'ORSOLA, PALERMO",38.11,13.36,Sicilia
86912,CAPRIVA DEL FRIULI,45.93,13.52,Friuli-Venezia Giulia
86964,VALGANNA,45.93,8.83,Lombardia
86977,COLOGNOLA AI COLLI,45.43,11.2,Veneto
87000,ACQUAVIVA DELLE FONTI RAILWAY STATION,40.89,16.84,Puglia
87002,MOLARE,44.62,8.6,Piemonte
87003,ARDORE,38.18,16.17,Calabria
87024,TREVILLE,45.1,8.37,Piemonte
87037,MONTALE,43.93,11.02,Toscana
87099,MONTE DI MALO,45.67,11.37,Veneto
87126,VARSI,44.67,9.85,Emilia-Romagna
87143,RAVASCLETTO,46.53,12.92,Friuli-Venezia Giulia
87151,VILLANOVA TULO,39.78,9.22,Sardigna/Sardegna
87239,CIGOLE,45.3,10.18,Lombardia
87341,MARCELLINA,42.02,12.8,Lazio
87360,CASANOVA LONATI,45.1,9.22,Lombardia
87380,LASTEBASSE,45.92,11.27,Veneto
87427,ARCUGNANO,45.5,11.53,Veneto
87433,PABILLONIS,39.6,8.72,Sardigna/Sardegna
87446,SANT'ANGELO DI BROLO,38.12,14.88,Sicilia
87549,OLGIATE-CALCO-BRIVIO RAILWAY STATION,45.73,9.4,Lombardia
87552,SANT'ANGELO IN PONTANO,43.1,13.4,Marche
87554,VILLA VERDE,39.8,8.82,Sardigna/Sardegna
87590,BEVILACQUA,45.23,11.4,Veneto
87622,GAETA,41.22,13.57,Lazio
87765,ROCCAFORTE DEL GRECO,38.05,15.9,Calabria
87798,"SAINT-PIERRE, AOSTA VALLEY",45.71,7.23,Valle d'Aosta / Vallée d'Aoste
87948,ESTERZILI,39.78,9.28,Sardigna/Sardegna
88010,"NASO, SICILY",38.12,14.78,Sicilia
88047,SUBIACO DAMS,41.91,13.13,Lazio
88147,SAVIANO,40.92,14.52,Campania
88156,LOMELLINA,45.32,8.87,Lombardia
88198,VILLAGRANDE STRISAILI,39.97,9.5,Sardigna/Sardegna
88199,"VILLETTE, PIEDMONT",46.12,8.53,Piemonte
88295,REGIONAL ARCHEOLOGICAL MUSEUM ANTONIO SALINAS,38.12,13.36,Sicilia
88302,ALTIDONA,43.12,13.8,Marche
88329,MONTE ALTISSIMO,45.91,10.17,Lombardia
88377,GUARDAVALLE,38.5,16.5,Calabria
88393,TUORO SUL TRASIMENO,43.2,12.08,Umbria
88421,PIETRACATELLA,41.58,14.87,Molise
88431,SELARGIUS,39.25,9.17,Sardigna/Sardegna
88476,MONTE BANO,44.5,9.05,Liguria
88604,SARROCH,39.07,9.02,Sardigna/Sardegna
88682,CORCIANO,43.13,12.28,Umbria
88718,COTRONEI,39.16,16.78,Calabria
88722,"AVEGNO, LIGURIA",44.38,9.17,Liguria
88783,NOVATE MEZZOLA,46.22,9.45,Lombardia
88789,PANCALIERI,44.83,7.58,Piemonte
88865,ROCCELLA VALDEMONE,37.93,15.02,Sicilia
88888,ANTONIMINA,38.27,16.15,Calabria
88892,ST. LORENZEN,46.78,11.9,Trentino-Alto Adige/Südtirol
88935,"TEATRO DELLA CONCORDIA (MONTE CASTELLO DI VIBIO, ITALY)",42.84,12.35,Umbria
89010,BREGAGLIA RANGE,46.27,9.75,Lombardia
89025,"PETINA, CAMPANIA",40.53,15.37,Campania
89080,GONI,39.58,9.28,Sardigna/Sardegna
89183,"CARCERI, VENETO",45.2,11.62,Veneto
89196,BERGEGGI,44.25,8.44,Liguria
89258,CASTELLO BARBAROSSA,40.56,14.23,Campania
89263,SOIANO DEL LAGO,45.52,10.52,Lombardia
89316,LECCE NEI MARSI,41.93,13.69,Abruzzo
89325,CIVIDALE DEL FRIULI,46.1,13.43,Friuli-Venezia Giulia
89330,OLGIATE COMASCO,45.78,8.97,Lombardia
89400,CAVARGNA,46.08,9.12,Lombardia
89481,MONTE CORNAGERA,45.79,9.78,Lombardia
89500,LAMPORO,45.23,8.1,Piemonte
89616,CESANA TORINESE,44.95,6.8,Piemonte
89631,VILLETTA BARREA,41.78,13.94,Abruzzo
89676,CELLAMARE,41.02,16.93,Puglia
89708,ANCONA LIGHTHOUSE (FARO DI COLLE CAPPUCCINI),43.62,13.52,Marche
89709,MONTELEONE D'ORVIETO,42.92,12.05,Umbria
89755,"MANDELA, LAZIO",42.03,12.92,Lazio
89756,TORCEGNO,46.07,11.45,Trentino-Alto Adige/Südtirol
89839,DERVIO,46.08,9.3,Lombardia
89849,ACQUASANTA TERME,42.77,13.42,Marche
90034,CANALE MONTERANO,42.13,12.1,Lazio
90050,SAN VITO DI LEGUZZANO,45.68,11.38,Veneto
90146,AIGUILLE BLANCHE DE PEUTEREY,45.82,6.88,Valle d'Aosta / Vallée d'Aoste
90216,QUARTIERE VARESINA,45.5,9.15,Lombardia
90218,"ROMANA, SARDINIA",40.48,8.58,Sardigna/Sardegna
90328,RIONERO SANNITICO,41.72,14.13,Molise
90364,GAGGI,37.87,15.22,Sicilia
90399,MONTE SOLARO,40.54,14.22,Campania
90445,CONSELVE,45.23,11.87,Veneto
90517,MARIANO COMENSE RAILWAY STATION,45.69,9.18,Lombardia
90518,FIUMEDINISI,38.02,15.38,Sicilia
90564,NIBIONNO,45.75,9.25,Lombardia
90582,"GRONDONA, PIEDMONT",44.7,8.97,Piemonte
90601,ARAGONA,37.4,13.62,Sicilia
90643,ATENA LUCANA,40.45,15.55,Campania
90647,MENDATICA,44.08,7.8,Liguria
90695,"TEMPLE OF HERACLES, AGRIGENTO",37.29,13.59,Sicilia
90709,CIAMPINO RAILWAY STATION,41.8,12.6,Lazio
90731,POZZAGLIA SABINA,42.17,12.97,Lazio
90856,CASTELLAMMARE DEL GOLFO,38.03,12.88,Sicilia
91004,CASTRONNO,45.73,8.8,Lombardia
91138,SGURGOLA,41.67,13.15,Lazio
91204,MONTE GRANERO,44.72,7.07,Piemonte
91220,GORGA (STIO),40.32,15.24,Campania
91276,MODENA,44.65,10.93,Emilia-Romagna
91331,CALTO,45.0,11.35,Veneto
91351,LATINA AIR BASE,41.54,12.91,Lazio
91394,LA MADDALENA,41.22,9.4,Sardigna/Sardegna
91440,VARZO,46.2,8.25,Piemonte
91462,VARZI,44.82,9.2,Lombardia
91526,CITTIGLIO,45.9,8.67,Lombardia
91547,CALUSO,45.3,7.88,Piemonte
91624,CAMOGLI,44.35,9.15,Liguria
91630,VALLO DELLA LUCANIA,40.23,15.27,Campania
91647,ASCEA,40.15,15.18,Campania
91662,MOLFETTA RAILWAY STATION,41.2,16.6,Puglia
91760,MONSERRATO,39.25,9.15,Sardigna/Sardegna
91764,"SAN CLEMENTE, EMILIA-ROMAGNA",43.95,12.58,Emilia-Romagna
91768,GROTTOLELLA,40.97,14.79,Campania
91863,PAESTUM (FRAZIONE),40.41,15.0,Campania
91874,SAMBUCO,44.33,7.08,Piemonte
91880,SAMBUCI,41.98,12.93,Lazio
91911,MONTEBELLO SUL SANGRO,41.98,14.33,Abruzzo
91961,MEDUSA (BERNINI),41.89,12.48,Lazio
91970,FORENZA,40.87,15.85,Basilicata
91989,SAN RUFO,40.43,15.47,Campania
92061,ENEMONZO,46.42,12.88,Friuli-Venezia Giulia
92110,CALES,41.2,14.13,Campania
92210,VOLTURINO,41.48,15.12,Puglia
92227,CALCO,45.72,9.42,Lombardia
92253,CALCI,43.72,10.52,Toscana
92272,CLAINO CON OSTENO,46.0,9.08,Lombardia
92294,GIAVE,40.45,8.75,Sardigna/Sardegna
92413,SARTIRANA LOMELLINA,45.1,8.65,Lombardia
92493,GOLFERENZO,44.97,9.3,Lombardia
92615,TIFATA,41.07,14.17,Campania
92684,MONTE PRIAFORÀ,45.79,11.32,Veneto
92717,CANTALUPO IN SABINA,42.3,12.65,Lazio
92798,GIUNGANO,40.4,15.12,Campania
92823,MERLINO,45.47,9.52,Lombardia
92830,MONTICELLI D'ONGINA,45.08,9.93,Emilia-Romagna
92844,"CETO, LOMBARDY",46.0,10.35,Lombardia
92954,ANZANO DI PUGLIA,41.12,15.29,Puglia
92989,OMEGNA,45.88,8.41,Piemonte
93017,RIO NELL'ELBA,42.82,10.4,Toscana
93075,"SAN CATALDO, SICILY",37.48,13.98,Sicilia
93083,CASTIGLIONE COSENTINO,39.35,16.28,Calabria
93108,PISCIOTTA,40.11,15.23,Campania
93115,POLINO,42.57,12.85,Umbria
93160,MONTE ROTONDO (MONTI SIBILLINI),42.98,13.2,Marche
93176,AIDONE,37.42,14.45,Sicilia
93236,FUBINE MONFERRATO,44.97,8.43,Piemonte
93256,OSPEDALETTO EUGANEO,45.23,11.62,Veneto
93259,LEQUILE,40.3,18.13,Puglia
93358,DOGLIANI,44.53,7.95,Piemonte
93514,CONZANO,45.02,8.45,Piemonte
93521,ANTELAO,46.45,12.26,Veneto
93594,LUCINASCO,43.97,7.97,Liguria
93613,SANT'ALESSIO SICULO,37.92,15.35,Sicilia
93619,TRAPANI,38.02,12.52,Sicilia
93658,DAVERIO,45.78,8.77,Lombardia
93714,COLLESANO,37.92,13.93,Sicilia
93935,MONTE CERIGNONE,43.83,12.42,Marche
93955,PIANO VETRALE,40.3,15.2,Campania
93979,VIGLIANO D'ASTI,44.83,8.23,Piemonte
94036,PIANIGA,45.45,12.02,Veneto
94283,TREBULA MUTUSCA,42.23,12.87,Lazio
94343,PALASPORT LINO OLDRINI,45.84,8.8,Lombardia
94366,PRATO CENTRALE RAILWAY STATION,43.88,11.11,Toscana
94436,AUSTIS,40.07,9.08,Sardigna/Sardegna
94439,"FORCE, MARCHE",42.97,13.48,Marche
94565,CIVEZZA,43.88,7.95,Liguria
94583,CANEPINA,42.38,12.23,Lazio
94649,SALAPARUTA,37.75,13.0,Sicilia
94703,PECORARA,44.88,9.38,Emilia-Romagna
94714,CALTIGNAGA,45.52,8.58,Piemonte
94737,CROPALATI,39.52,16.72,Calabria
94748,GENOVA SAMPIERDARENA RAILWAY STATION,44.41,8.89,Liguria
94773,JENESIEN,46.53,11.33,Trentino-Alto Adige/Südtirol
94875,ATELETA,41.86,14.2,Abruzzo
94924,ROBECCO PAVESE,45.05,9.15,Lombardia
94928,SAN SEBASTIANO AL VESUVIO,40.83,14.37,Campania
94936,FIRMO,39.72,16.17,Calabria
94950,BOCCIOLETO,45.83,8.12,Piemonte
94963,REGGIO DI CALABRIA CENTRALE RAILWAY STATION,38.1,15.64,Calabria
95140,FERRANDINA,40.5,16.45,Basilicata
95163,CELLOLE,41.2,13.85,Campania
95216,BLESSED LUDOVICA ALBERTONI,41.88,12.47,Lazio
95241,LARDIRAGO,45.23,9.23,Lombardia
95260,DOLO,45.43,12.08,Veneto
95270,APPENNINO TOSCO-EMILIANO NATIONAL PARK,44.32,10.24,Emilia-Romagna
95320,CARBONARA DI NOLA,40.88,14.58,Campania
95331,VENETICO,38.2,15.38,Sicilia
95383,OSSAGO LODIGIANO,45.25,9.53,Lombardia
95414,TONADICO,46.18,11.83,Trentino-Alto Adige/Südtirol
95453,MIASINO,45.8,8.43,Piemonte
95463,ROBELLA,45.1,8.1,Piemonte
95469,OSTUNI RAILWAY STATION,40.75,17.58,Puglia
95483,MONTE MORELLO,43.88,11.23,Toscana
95589,ORRIA,40.3,15.17,Campania
95606,SAN COLOMBANO CERTÉNOLI,44.37,9.32,Liguria
95667,BOLLATE CENTRO RAILWAY STATION,45.54,9.12,Lombardia
95767,"BIBIANA, PIEDMONT",44.8,7.28,Piemonte
95820,CONCA DEI MARINI,40.62,14.57,Campania
95947,TALAMELLO,43.9,12.28,Emilia-Romagna
95983,VALDIDENTRO,46.48,10.3,Lombardia
96022,SERRAPETRONA,43.18,13.18,Marche
96071,BASSANO IN TEVERINA,42.46,12.31,Lazio
96104,TRICASE,39.93,18.37,Puglia
96141,MONTABONE,44.7,8.38,Piemonte
96157,MASSICELLE,40.14,15.33,Campania
96218,PERNUMIA,45.27,11.78,Veneto
96237,CANTARANA,44.9,8.03,Piemonte
96324,"LU, PIEDMONT",45.0,8.48,Piemonte
96357,MONTEFANO,43.42,13.43,Marche
96374,GAMBATESA,41.5,14.92,Molise
96497,RIPARBELLA,43.37,10.6,Toscana
96509,ZERMEGHEDO,45.48,11.37,Veneto
96603,SAN FELICE CIRCEO,41.28,13.13,Lazio
96616,CENATE,40.18,18.05,Puglia
96629,AECLANUM,41.05,15.01,Campania
96643,VILLARBOIT,45.43,8.33,Piemonte
96645,MERCOGLIANO,40.93,14.74,Campania
96902,BOCENAGO,46.12,10.75,Trentino-Alto Adige/Südtirol
96952,ALFEDENA,41.74,14.04,Abruzzo
97034,"KAMARINA, SICILY",36.87,14.45,Sicilia
97083,QUARTUCCIU,39.25,9.18,Sardigna/Sardegna
97179,CICCIANO,40.97,14.53,Campania
97192,GRANTOLA,45.95,8.78,Lombardia
97266,SOLFATARA (VOLCANO),40.83,14.14,Campania
97270,"MESE, LOMBARDY",46.3,9.38,Lombardia
97284,SAN GERMANO DEI BERICI,45.4,11.47,Veneto
97286,GAMBASSI TERME,43.53,10.95,Toscana
97315,ORTACESUS,39.53,9.08,Sardigna/Sardegna
97329,BUBBIO,44.67,8.3,Piemonte
97381,CASTELNOVO DI SOTTO,44.82,10.57,Emilia-Romagna
97382,SUSA RAILWAY STATION,45.14,7.05,Piemonte
97413,CASTELLALTO,42.68,13.82,Abruzzo
97457,ROBECCHETTO CON INDUNO,45.53,8.77,Lombardia
97505,GORDONA,46.28,9.37,Lombardia
97537,PIZ DLES CUNTURINES,46.58,11.98,Trentino-Alto Adige/Südtirol
97551,FURGGEN,45.96,7.68,Valle d'Aosta / Vallée d'Aoste
97607,SUELLI,39.57,9.13,Sardigna/Sardegna
97615,SUELLO,45.82,9.32,Lombardia
97881,MOMPANTERO,45.15,7.07,Piemonte
97921,PIEDIMONTE SAN GERMANO,41.5,13.73,Lazio
97927,SANT'ANDREA APOSTOLO DELLO IONIO,38.62,16.53,Calabria
97993,CASTIGLIONE D'ADDA,45.22,9.68,Lombardia
98015,CENADI,38.72,16.42,Calabria
98016,BAGNOLO DI PO,45.02,11.5,Veneto
98069,MELENDUGNO,40.27,18.33,Puglia
98126,PONTE LAMBRO,45.83,9.23,Lombardia
98130,TERENTEN,46.83,11.78,Trentino-Alto Adige/Südtirol
98146,GENOVA PIAZZA PRINCIPE RAILWAY STATION,44.42,8.92,Liguria
98173,PONTEDASSIO,43.93,8.02,Liguria
98252,MONTE STELLA (CALABRIA),38.28,16.26,Calabria
98255,CAVALESE,46.28,11.47,Trentino-Alto Adige/Südtirol
98342,NIZZA DI SICILIA,37.98,15.4,Sicilia
98475,MACCHIA D'ISERNIA,41.57,14.17,Molise
98682,KASSIANSPITZE,46.71,11.5,Trentino-Alto Adige/Südtirol
98753,SAREGO,45.42,11.4,Veneto
98852,MONTE ALPI,40.12,15.98,Basilicata
98865,CASTELDIDONE,45.07,10.4,Lombardia
98884,MONTALTO DELLE MARCHE,42.99,13.61,Marche
98887,THE RAPE OF PROSERPINA,41.91,12.49,Lazio
98903,PAESTUM,40.42,15.01,Campania
98964,SAN GIUSEPPE VESUVIANO,40.83,14.5,Campania
99151,VELESO,45.9,9.18,Lombardia
99152,FRANCAVILLA AL MARE,42.42,14.3,Abruzzo
99180,SESTO FIORENTINO,43.83,11.2,Toscana
99235,CASTEL SAN PIETRO TERME,44.4,11.58,Emilia-Romagna
99250,BUGGIANO,43.88,10.73,Toscana
99277,SUPINO,41.62,13.23,Lazio
99286,MUSSOLENTE,45.78,11.82,Veneto
99324,BUCCHERI,37.12,14.85,Sicilia
99395,CASSINELLE,44.6,8.57,Piemonte
99500,SANTA MARIA DELLA VERSA,44.98,9.3,Lombardia
99526,BALANGERO,45.27,7.52,Piemonte
99532,BENEVENTO RAILWAY STATION,41.14,14.77,Campania
99756,MONTESILVANO,42.51,14.15,Abruzzo
99759,"MALEO, LOMBARDY",45.17,9.77,Lombardia
99779,MARCALLO CON CASONE,45.48,8.88,Lombardia
99795,PIANORO,44.39,11.34,Emilia-Romagna
99830,HASENÖHRL (ORTLER ALPS),46.54,10.86,Trentino-Alto Adige/Südtirol
99841,SAN MAURO CASTELVERDE,37.91,14.19,Sicilia
99886,CARPINETO ROMANO,41.6,13.08,Lazio
99910,"OLMEDO, SARDINIA",40.65,8.38,Sardigna/Sardegna
99927,PASSERANO MARMORITO,45.05,8.02,Piemonte
100011,BONDENO,44.88,11.42,Emilia-Romagna
100107,MENAROLA,46.3,9.35,Lombardia
100159,PIEVE A NIEVOLE,43.87,10.82,Toscana
100170,REVIGLIASCO D'ASTI,44.85,8.15,Piemonte
100219,BARI LIGHT,41.14,16.85,Puglia
100227,SANT'ANGELO LOMELLINA,45.23,8.68,Lombardia
100448,CHIUSA DI SAN MICHELE,45.1,7.32,Piemonte
100544,SANT'ELENA SANNITA,41.58,14.47,Molise
100565,DERUTA,42.98,12.42,Umbria
100583,CARPANETO PIACENTINO,44.92,9.78,Emilia-Romagna
100622,ROCCASTRADA,43.0,11.17,Toscana
100640,CEPAGATTI,42.37,14.07,Abruzzo
100647,FOSSANOVA ABBEY,41.44,13.2,Lazio
100699,LACEDONIA,41.05,15.42,Campania
100700,VETRALLA,42.31,12.08,Lazio
100773,SAN DAMIANO MACRA,44.48,7.25,Piemonte
100802,CASSINA DE' PECCHI,45.52,9.36,Lombardia
100814,ARZIGNANO,45.52,11.33,Veneto
100846,"ESTE, VENETO",45.23,11.67,Veneto
100861,CERVO VALLEY,45.61,8.06,Piemonte
100972,SAN TAMMARO,41.08,14.23,Campania
101102,CASTELNUOVO BOZZENTE,45.77,8.95,Lombardia
101188,CINTO EUGANEO,45.28,11.67,Veneto
101228,CARISOLO,46.17,10.77,Trentino-Alto Adige/Südtirol
101258,SAN GIOVANNI D’ASSO,43.15,11.58,Toscana
101284,CIBIANA DI CADORE,46.38,12.28,Veneto
101288,CANNOLE,40.17,18.37,Puglia
101309,METROPOLITAN CITY OF CATANIA,37.52,15.07,Sicilia
101376,"CERVINO, CAMPANIA",41.05,14.42,Campania
101484,VILLAFRANCA IN LUNIGIANA,44.28,9.95,Toscana
101499,DUGENTA,41.13,14.45,Campania
101512,RIPATRANSONE,43.0,13.77,Marche
101674,CORSICA AND SARDINIA,39.25,9.05,Sardigna/Sardegna
101700,SIRMIONE,45.49,10.61,Lombardia
101757,BEDONIA,44.5,9.63,Emilia-Romagna
101817,SANTO STEFANO LODIGIANO,45.17,9.77,Lombardia
101986,"BASILICA OF SAN MAGNO, LEGNANO",45.59,8.92,Lombardia
102000,GRAMMICHELE,37.21,14.64,Sicilia
102004,LIZZANELLO,40.31,18.22,Puglia
102033,"CERVO, LIGURIA",43.92,8.12,Liguria
102159,MONTENERO DI BISACCIA,41.95,14.78,Molise
102305,MILANO PORTA GARIBALDI RAILWAY STATION,45.48,9.19,Lombardia
102307,PUNTA DEL FARO,38.27,15.65,Sicilia
102368,BEDOLLO,46.17,11.3,Trentino-Alto Adige/Südtirol
102494,GAZZADA-SCHIANNO-MORAZZONE RAILWAY STATION,45.78,8.82,Lombardia
102534,CAPERGNANICA,45.33,9.65,Lombardia
102568,STANGHELLA,45.13,11.75,Veneto
102753,SAN PIETRO DI MORUBIO,45.25,11.23,Veneto
102758,MANZIANA,42.13,12.13,Lazio
102777,MONTE SIRENTE,42.15,13.61,Abruzzo
102794,STADIO CIRO VIGORITO,41.12,14.78,Campania
102970,BALDICHIERI D'ASTI,44.9,8.08,Piemonte
103097,BOGLIASCO,44.38,9.07,Liguria
103210,SAN MARTINO SANNITA,41.07,14.83,Campania
103234,PIEVE DI LEDRO,45.88,10.73,Trentino-Alto Adige/Südtirol
103272,ROTONDI,41.03,14.6,Campania
103308,TORRE SAN GIOVANNI,39.89,18.11,Puglia
103425,COLLOBIANO,45.4,8.35,Piemonte
103467,ZIMELLA,45.33,11.38,Veneto
103470,VIDIGULFO,45.3,9.23,Lombardia
103513,MONGRANDO,45.52,8.0,Piemonte
103556,SEGESTA,37.94,12.83,Sicilia
103563,MOLINARA,41.3,14.92,Campania
103624,FRAINE,41.92,14.48,Abruzzo
103626,CUCCARO VETERE,40.17,15.32,Campania
103658,"RASSA, PIEDMONT",45.77,8.02,Piemonte
103775,CALASETTA,39.12,8.37,Sardigna/Sardegna
103790,SACCO,40.38,15.38,Campania
103908,FARFA ABBEY,42.22,12.72,Lazio
103963,WILDGALL,46.9,12.14,Trentino-Alto Adige/Südtirol
103974,MANERBIO,45.37,10.13,Lombardia
104040,MONTEBELLO IONICO,37.98,15.77,Calabria
104080,SOLUNTUM,38.07,13.54,Sicilia
104214,CASTAGNETO PO,45.18,7.88,Piemonte
104269,NARDODIPACE,38.47,16.33,Calabria
104288,PUNTA PARATELLA LIGHTHOUSE,43.44,9.9,Toscana
104315,SANT'ANGELO LODIGIANO,45.23,9.4,Lombardia
104358,SAN CHIRICO RAPARO,40.18,16.08,Basilicata
104446,OCCHIEPPO INFERIORE,45.52,8.0,Piemonte
104468,MARMAROLE,46.5,12.35,Veneto
104505,OCCIMIANO,45.07,8.5,Piemonte
104519,PUNTA MARIA CRISTINA,45.97,7.62,Valle d'Aosta / Vallée d'Aoste
104557,SCANDOLARA RAVARA,45.08,10.28,Lombardia
104560,BORGARO TORINESE,45.15,7.65,Piemonte
104617,OSASIO,44.87,7.6,Piemonte
104654,BOLSENA,42.64,11.99,Lazio
104686,ROÈ VOLCIANO,45.63,10.5,Lombardia
104709,MAMOIADA,40.22,9.28,Sardigna/Sardegna
104786,BARLETTA SCALO RAILWAY STATION,41.31,16.29,Puglia
104860,COLLEDARA,42.53,13.68,Abruzzo
104868,MONTE SAN GIACOMO,40.35,15.53,Campania
104890,INCISA SCAPACCINO,44.82,8.38,Piemonte
104957,PALATRUSSARDI,45.49,9.13,Lombardia
104975,SAN DAMIANO D'ASTI,44.83,8.07,Piemonte
104981,TORINO PORTA NUOVA RAILWAY STATION,45.06,7.68,Piemonte
105009,QUARTU SANT'ELENA,39.23,9.18,Sardigna/Sardegna
105032,MONGIUFFI MELIA,37.9,15.27,Sicilia
105132,SAN COSTANTINO CALABRO,38.63,16.07,Calabria
105148,SESTA GODANO,44.28,9.67,Liguria
105273,PREMANA,46.05,9.42,Lombardia
105300,CISANO SUL NEVA,44.08,8.15,Liguria
105323,PREVALLE,45.55,10.42,Lombardia
105350,POGGIO SANNITA,41.78,14.42,Molise
105408,SAN DEMETRIO NE' VESTINI,42.29,13.56,Abruzzo
105428,TORRIANA,43.98,12.38,Emilia-Romagna
105433,PIANOSA LIGHTHOUSE,42.59,10.1,Toscana
105499,GUAMAGGIORE,39.57,9.07,Sardigna/Sardegna
105558,GUARDAMIGLIO,45.15,9.7,Lombardia
105613,ONZO,44.07,8.05,Liguria
105704,CANNETO SULL'OGLIO,45.15,10.38,Lombardia
105744,CASTELNUOVO PARANO,41.37,13.75,Lazio
105756,MONTE CEVEDALE,46.45,10.62,Trentino-Alto Adige/Südtirol
105784,TONENGO,45.12,8.0,Piemonte
105902,DURONIA,41.67,14.47,Molise
105950,ZINSELER,46.84,11.44,Trentino-Alto Adige/Südtirol
105987,CASTEL SAN GIORGIO,40.78,14.7,Campania
106003,BIENTINA,43.72,10.62,Toscana
106057,BELVEDERE DI SPINELLO,39.22,16.88,Calabria
106207,VILLA SANTO STEFANO,41.52,13.32,Lazio
106224,METAPONTUM,40.38,16.82,Basilicata
106253,RESCALDINA,45.62,8.95,Lombardia
106332,MONTE CABIANCA,46.01,9.87,Lombardia
106381,MONTEPARANO,40.45,17.42,Puglia
106391,VENAFRO,41.48,14.05,Molise
106397,RODELLO,44.63,8.05,Piemonte
106461,KLOPAIERSPITZE,46.84,10.55,Trentino-Alto Adige/Südtirol
106474,VEDELAGO,45.68,12.02,Veneto
106656,NOCERA DEI PAGANI,40.73,14.62,Campania
106755,BISUSCHIO,45.87,8.87,Lombardia
106788,CAPE MISENO,40.78,14.09,Campania
106810,CONCA DELLA CAMPANIA,41.33,13.99,Campania
106812,TREVI FOUNTAIN,41.9,12.48,Lazio
106814,"AMENO, ITALY",45.78,8.43,Piemonte
106838,MONTELEONE DI FERMO,43.05,13.53,Marche
106903,NERETO,42.82,13.82,Abruzzo
106918,VILLA VICENTINA,45.82,13.4,Friuli-Venezia Giulia
106935,COSTA DI ROVIGO,45.05,11.7,Veneto
107050,VILLANOVA DEL BATTISTA,41.12,15.17,Campania
107067,CASTELL'UMBERTO,38.08,14.8,Sicilia
107076,VILLA CELIERA,42.38,13.85,Abruzzo
107081,MONTEGIOCO,44.83,8.97,Piemonte
107119,LIERNA,45.96,9.3,Lombardia
107136,ROCCA BUSAMBRA,37.86,13.4,Sicilia
107181,FABBRICO,44.87,10.8,Emilia-Romagna
107186,QUADRIVIO,40.64,15.11,Campania
107242,SESTINO,43.72,12.3,Toscana
107260,PUNTA VARO LIGHTHOUSE,40.97,13.05,Lazio
107275,OSOPPO,46.25,13.08,Friuli-Venezia Giulia
107395,ASCREA,42.2,13.0,Lazio
107400,PORTO TOLLE,44.95,12.32,Veneto
107435,ORUNE,40.42,9.37,Sardigna/Sardegna
107444,VARAITA VALLEY,44.58,7.07,Piemonte
107493,RIGNANO FLAMINIO,42.2,12.48,Lazio
107506,RIMASCO,45.87,8.07,Piemonte
